[{"id":"139292","name":"Tyrannosaurus rex","rank":"species","early_interval":"maastrichtian","late_interval":"","latitude":51.906399,"longitude":-113.0289,"country":"CA","state":"Alberta","county":"","comment":"center of section 10, township 34, range 22, W. 4th meridian; about 10 feet above Kneehills Tuff; 7 miles east of Huxley, AB","formation":"Scollard","lithology":"sandstone","lithology_description":"concretionary zone in the basal part of a channel sandstone","old_latitude":64.15,"old_longitude":-67.47},{"id":"139293","name":"Tyrannosaurus rex","rank":"species","early_interval":"maastrichtian","late_interval":"","latitude":51.933334,"longitude":-113.23333,"country":"CA","state":"Alberta","county":"","comment":"center of section 10, township 34, range 11, W. 4th meridian; about 20 feet below and 200 yards south of NMC 9950 locality; 7 miles east of Huxley, AB","formation":"Scollard","lithology":"sandstone","lithology_description":"","old_latitude":64.24,"old_longitude":-67.69},{"id":"139307","name":"Camarasaurus grandis","rank":"species","early_interval":"kimmeridgian","late_interval":"tithonian","latitude":39.068802,"longitude":-108.699989,"country":"US","state":"Colorado","county":"Mesa","comment":"In Redlands SW of Fruita, CO; near base of Serpent's Trail, near E entrance to Colorado NM. Now on private land, S side of No Thoroughfare Canyon, sec 29, T11S, R101W.","formation":"Morrison","lithology":"claystone","lithology_description":"variegated clays...alternation between green and purplish bands does not mark andy variation in the nature of hardness of these massive joint clays. There are frequent layers of clay nodules, sometimes calcareous, and a few ledges of nodular gray sandstone which are confined to limited areas. Occasional thick ledges of cross-bedded sandstone and lenticular masses of greenish sand occur at almost all levels, but these are likewise of limited extent. Near the top...the clays take on a more sandy nature.\" (Riggs 1901)","old_latitude":26.5,"old_longitude":-43.62},{"id":"139308","name":"Camarasaurus supremus","rank":"species","early_interval":"kimmeridgian","late_interval":"","latitude":39.111668,"longitude":-108.717499,"country":"US","state":"Colorado","county":"Mesa","comment":"2 mi S of Fruita, CO; 100 feet above Riggs Quarry 12; N of mouth of Wedding Canyon","formation":"Morrison","lithology":"claystone","lithology_description":"variegated clays...alternation between green and purplish bands does not mark andy variation in the nature of hardness of these massive joint clays. There are frequent layers of clay nodules, sometimes calcareous, and a few ledges of nodular gray sandstone which are confined to limited areas. Occasional thick ledges of cross-bedded sandstone and lenticular masses of greenish sand occur at almost all levels, but these are likewise of limited extent. Near the top...the clays take on a more sandy nature.\" (Riggs 1901)","old_latitude":26.66,"old_longitude":-42.07},{"id":"139340","name":"Ankylosaurus magniventris","rank":"species","early_interval":"maastrichtian","late_interval":"","latitude":47.637699,"longitude":-106.569901,"country":"US","state":"Montana","county":"Garfield","comment":"upper end of Gilbert Creek, 120 miles north of Miles City, MT. \"probably\" section 27 or 28, T22N, R40E, Garfield Co. Coordinates for sec. 27.","formation":"Hell Creek","lithology":"not reported","lithology_description":"","old_latitude":58.43,"old_longitude":-64},{"id":"147092","name":"Pachycephalosaurus wyomingensis","rank":"species","early_interval":"maastrichtian","late_interval":"","latitude":47.695831,"longitude":-106.227776,"country":"US","state":"Montana","county":"McCone","comment":"Bug Creek 7 1/2 minute Quadrangle, NE 1/4 of section 5, Township 22N, Range 43E, approx. one mile east of Fort Peck Reservoir and 1.5 miles northwest of the Bug Creek Anthills locality. The lat long is for the Fort Peck Reservoir.","formation":"Hell Creek","lithology":"sandstone","lithology_description":"green to buff fine-grained sandstone and siltstone","old_latitude":58.37,"old_longitude":-63.56},{"id":"149592","name":"Allosaurus fragilis","rank":"species","early_interval":"kimmeridgian","late_interval":"tithonian","latitude":41.893101,"longitude":-106.041,"country":"US","state":"Wyoming","county":"Albany","comment":"SW 1/4 of SW 1/4 of sec. 10, T22N, R77W, Como Bluff, Albany Co., WY","formation":"Morrison","lithology":"claystone","lithology_description":"","old_latitude":28.58,"old_longitude":-40.48},{"id":"149596","name":"Allosaurus fragilis","rank":"species","early_interval":"kimmeridgian","late_interval":"tithonian","latitude":42.035831,"longitude":-106.389999,"country":"US","state":"Wyoming","county":"Converse","comment":"unspecified locality in the Freeze Out Mountains, Converse Co.","formation":"Morrison","lithology":"","lithology_description":"","old_latitude":28.79,"old_longitude":-40.71},{"id":"149597","name":"Allosaurus fragilis","rank":"species","early_interval":"kimmeridgian","late_interval":"tithonian","latitude":42.035831,"longitude":-106.389999,"country":"US","state":"Wyoming","county":"Converse","comment":"unspecified locality in the Freeze Out Mountains, Converse Co.","formation":"Morrison","lithology":"","lithology_description":"","old_latitude":28.79,"old_longitude":-40.71},{"id":"149598","name":"Diplodocus","rank":"genus","early_interval":"kimmeridgian","late_interval":"tithonian","latitude":42.035831,"longitude":-106.389999,"country":"US","state":"Wyoming","county":"Converse","comment":"unspecified locality in the Freeze Out Mountains, Converse Co.","formation":"Morrison","lithology":"","lithology_description":"","old_latitude":28.79,"old_longitude":-40.71},{"id":"149599","name":"Stegosaurus","rank":"genus","early_interval":"kimmeridgian","late_interval":"tithonian","latitude":42.035831,"longitude":-106.389999,"country":"US","state":"Wyoming","county":"Converse","comment":"unspecified locality in the Freeze Out Mountains, Converse Co.","formation":"Morrison","lithology":"","lithology_description":"","old_latitude":28.79,"old_longitude":-40.71},{"id":"149600","name":"Camarasaurus grandis","rank":"species","early_interval":"kimmeridgian","late_interval":"tithonian","latitude":42.035831,"longitude":-106.389999,"country":"US","state":"Wyoming","county":"Converse","comment":"unspecified locality in the Freeze Out Mountains, Converse Co.","formation":"Morrison","lithology":"","lithology_description":"","old_latitude":28.79,"old_longitude":-40.71},{"id":"149601","name":"Allosaurus fragilis","rank":"species","early_interval":"kimmeridgian","late_interval":"tithonian","latitude":42.035831,"longitude":-106.389999,"country":"US","state":"Wyoming","county":"Converse","comment":"unspecified locality in the Freeze Out Mountains, Converse Co.","formation":"Morrison","lithology":"","lithology_description":"","old_latitude":28.79,"old_longitude":-40.71},{"id":"150311","name":"Apatosaurus louisae","rank":"species","early_interval":"kimmeridgian","late_interval":"tithonian","latitude":39.653423,"longitude":-105.187332,"country":"US","state":"Colorado","county":"Jefferson","comment":"sec. 35, T4S, R70W, Morrison, Colorado; along Dinosaur Ridge","formation":"Morrison","lithology":"mudstone","lithology_description":"black mudstone and buff sandstone beds","old_latitude":26.25,"old_longitude":-40.53},{"id":"150350","name":"Diplodocus carnegii","rank":"species","early_interval":"kimmeridgian","late_interval":"tithonian","latitude":42.152302,"longitude":-105.916199,"country":"US","state":"Wyoming","county":"Albany","comment":"Sheep Creek, 25 miles NE of Medicine Bow, WY; orig. in Carbon Co.","formation":"Morrison","lithology":"marl","lithology_description":"limestone-marl with silt and clay, gray","old_latitude":28.8,"old_longitude":-40.29},{"id":"150351","name":"Brontosaurus excelsus","rank":"species","early_interval":"kimmeridgian","late_interval":"tithonian","latitude":42.152302,"longitude":-105.916199,"country":"US","state":"Wyoming","county":"Albany","comment":"Sheep Creek, 25 miles NE of Medicine Bow, WY; orig. in Carbon Co.","formation":"Morrison","lithology":"marl","lithology_description":"limestone-marl with silt and clay, gray","old_latitude":28.8,"old_longitude":-40.29},{"id":"150352","name":"Stegosaurus","rank":"genus","early_interval":"kimmeridgian","late_interval":"tithonian","latitude":42.152302,"longitude":-105.916199,"country":"US","state":"Wyoming","county":"Albany","comment":"Sheep Creek, 25 miles NE of Medicine Bow, WY; orig. in Carbon Co.","formation":"Morrison","lithology":"marl","lithology_description":"limestone-marl with silt and clay, gray","old_latitude":28.8,"old_longitude":-40.29},{"id":"150354","name":"Camarasaurus","rank":"genus","early_interval":"kimmeridgian","late_interval":"tithonian","latitude":42.152302,"longitude":-105.916199,"country":"US","state":"Wyoming","county":"Albany","comment":"Sheep Creek, 25 miles NE of Medicine Bow, WY; orig. in Carbon Co.","formation":"Morrison","lithology":"marl","lithology_description":"limestone-marl with silt and clay, gray","old_latitude":28.8,"old_longitude":-40.29},{"id":"150849","name":"Dilophosaurus wetherilli","rank":"species","early_interval":"sinemurian","late_interval":"pliensbachian","latitude":36.145279,"longitude":-110.32,"country":"US","state":"Arizona","county":"Coconino","comment":"center of flat below Tuba City, 200 yards NE of road fence at dinosaur track locality, which is on the road to Moenave 0.13 miles N of Navajo 1 hwy to Tuba City. 20 miles N of Cameron, AZ in the Navajo Indian Reservation. SW 1/4, sec 34, T32N, R10E.","formation":"Kayenta","lithology":"shale","lithology_description":"purplish blocky shale\" within Kayenta. Formation overall is the \"silty facies\" portion, gray and brownish, fine-grained sediments.","old_latitude":15.35,"old_longitude":-39},{"id":"150850","name":"Dilophosaurus wetherilli","rank":"species","early_interval":"sinemurian","late_interval":"pliensbachian","latitude":36.099998,"longitude":-110.300003,"country":"US","state":"Arizona","county":"Coconino","comment":"0.25 miles S of UCMP V4214. 20 miles N of Cameron, AZ in the Navajo Indian Reservation. Coordinates from UCMP website.","formation":"Kayenta","lithology":"shale","lithology_description":"purplish blocky shale\" within Kayenta. Formation overall is the \"silty facies\" portion, gray and brownish, fine-grained sediments.","old_latitude":15.31,"old_longitude":-38.98},{"id":"219965","name":"Iguanodon bernissartensis","rank":"species","early_interval":"barremian","late_interval":"aptian","latitude":50.466667,"longitude":3.633333,"country":"BE","state":"Sauerland","county":"","comment":"Sainte-Barbe coal seam near Bernissart, between Mons and Tourney (= Tournai) near the French border. Accessed through several wells and shafts, including Cran du Nord, Cran du Midi, Cran aux Iguanodons","formation":"Sainte-Barbe Clays","lithology":"claystone","lithology_description":"ETE rock type adj: 0, ETE lithology comments: .","old_latitude":37.37,"old_longitude":28.12},{"id":"219971","name":"Diplodocus longus","rank":"species","early_interval":"kimmeridgian","late_interval":"tithonian","latitude":42.017776,"longitude":-106.048615,"country":"US","state":"Wyoming","county":"Albany","comment":"coordinates from K. Carpenter (pers. comm. to M. Carrano). at the head of a draw, near the Medicine Bow River in S-central Wyoming","formation":"Morrison","lithology":"sandstone","lithology_description":"ETE rock type adj: \"whte,brn,gray\", ETE lithology comments: \"crse,clastic+snd lens","old_latitude":28.7,"old_longitude":-40.44},{"id":"219972","name":"Camarasaurus","rank":"genus","early_interval":"kimmeridgian","late_interval":"tithonian","latitude":42.017776,"longitude":-106.048615,"country":"US","state":"Wyoming","county":"Albany","comment":"coordinates from K. Carpenter (pers. comm. to M. Carrano). at the head of a draw, near the Medicine Bow River in S-central Wyoming","formation":"Morrison","lithology":"sandstone","lithology_description":"ETE rock type adj: \"whte,brn,gray\", ETE lithology comments: \"crse,clastic+snd lens","old_latitude":28.7,"old_longitude":-40.44},{"id":"219973","name":"Stegosaurus stenops","rank":"species","early_interval":"kimmeridgian","late_interval":"tithonian","latitude":42.017776,"longitude":-106.048615,"country":"US","state":"Wyoming","county":"Albany","comment":"coordinates from K. Carpenter (pers. comm. to M. Carrano). at the head of a draw, near the Medicine Bow River in S-central Wyoming","formation":"Morrison","lithology":"sandstone","lithology_description":"ETE rock type adj: \"whte,brn,gray\", ETE lithology comments: \"crse,clastic+snd lens","old_latitude":28.7,"old_longitude":-40.44},{"id":"219974","name":"Brontosaurus excelsus","rank":"species","early_interval":"kimmeridgian","late_interval":"tithonian","latitude":42.017776,"longitude":-106.048615,"country":"US","state":"Wyoming","county":"Albany","comment":"coordinates from K. Carpenter (pers. comm. to M. Carrano). at the head of a draw, near the Medicine Bow River in S-central Wyoming","formation":"Morrison","lithology":"sandstone","lithology_description":"ETE rock type adj: \"whte,brn,gray\", ETE lithology comments: \"crse,clastic+snd lens","old_latitude":28.7,"old_longitude":-40.44},{"id":"219975","name":"Allosaurus fragilis","rank":"species","early_interval":"kimmeridgian","late_interval":"tithonian","latitude":42.017776,"longitude":-106.048615,"country":"US","state":"Wyoming","county":"Albany","comment":"coordinates from K. Carpenter (pers. comm. to M. Carrano). at the head of a draw, near the Medicine Bow River in S-central Wyoming","formation":"Morrison","lithology":"sandstone","lithology_description":"ETE rock type adj: \"whte,brn,gray\", ETE lithology comments: \"crse,clastic+snd lens","old_latitude":28.7,"old_longitude":-40.44},{"id":"219980","name":"Camarasaurus lentus","rank":"species","early_interval":"kimmeridgian","late_interval":"","latitude":43.380001,"longitude":-108.120003,"country":"US","state":"Wyoming","county":"Hot Springs","comment":"both Sauropod (S) and Beside Sauropods (BS) quarries are directly adjacent and in the same layer, so are here combined as one collection. Bones from different individuals are mixed throughout.","formation":"Morrison","lithology":"mudstone","lithology_description":"dark green or gray mudstone, containing abundant illite...Very hard silty carbonate nodules are fairly common in the upper half of the bone layer...In the lower layer of the bone bed abundant lignite fragments are present.","old_latitude":30.53,"old_longitude":-40.87},{"id":"219998","name":"Tyrannosaurus rex","rank":"species","early_interval":"campanian","late_interval":"","latitude":50.728848,"longitude":-111.525871,"country":"CA","state":"Alberta","county":"","comment":"","formation":"Dinosaur Park","lithology":"","lithology_description":"ETE rock type adj: 0, ETE lithology comments: 0","old_latitude":60.92,"old_longitude":-65.73},{"id":"220009","name":"Tyrannosaurus rex","rank":"species","early_interval":"campanian","late_interval":"","latitude":50.727234,"longitude":-111.524582,"country":"CA","state":"Alberta","county":"","comment":"","formation":"Dinosaur Park","lithology":"sandstone","lithology_description":"ETE rock type adj: 0, ETE lithology comments: 0","old_latitude":60.92,"old_longitude":-65.73},{"id":"220011","name":"Velociraptor","rank":"genus","early_interval":"campanian","late_interval":"","latitude":50.727234,"longitude":-111.524582,"country":"CA","state":"Alberta","county":"","comment":"","formation":"Dinosaur Park","lithology":"sandstone","lithology_description":"ETE rock type adj: 0, ETE lithology comments: 0","old_latitude":60.92,"old_longitude":-65.73},{"id":"220055","name":"Diplodocus","rank":"genus","early_interval":"kimmeridgian","late_interval":"tithonian","latitude":43.630001,"longitude":-108.199997,"country":"US","state":"Wyoming","county":"Hot Spings","comment":"name originally given as \"RB\" but should be \"BB","formation":"Morrison","lithology":"siliciclastic","lithology_description":"","old_latitude":30.69,"old_longitude":-41.97},{"id":"220056","name":"Camarasaurus","rank":"genus","early_interval":"kimmeridgian","late_interval":"tithonian","latitude":43.630001,"longitude":-108.199997,"country":"US","state":"Wyoming","county":"Hot Spings","comment":"name originally given as \"RB\" but should be \"BB","formation":"Morrison","lithology":"siliciclastic","lithology_description":"","old_latitude":30.69,"old_longitude":-41.97},{"id":"220057","name":"Stegosaurus","rank":"genus","early_interval":"kimmeridgian","late_interval":"tithonian","latitude":43.630001,"longitude":-108.199997,"country":"US","state":"Wyoming","county":"Hot Spings","comment":"name originally given as \"RB\" but should be \"BB","formation":"Morrison","lithology":"siliciclastic","lithology_description":"","old_latitude":30.69,"old_longitude":-41.97},{"id":"220058","name":"Allosaurus","rank":"genus","early_interval":"kimmeridgian","late_interval":"tithonian","latitude":43.630001,"longitude":-108.199997,"country":"US","state":"Wyoming","county":"Hot Spings","comment":"name originally given as \"RB\" but should be \"BB","formation":"Morrison","lithology":"siliciclastic","lithology_description":"","old_latitude":30.69,"old_longitude":-41.97},{"id":"220090","name":"Velociraptor mongoliensis","rank":"species","early_interval":"campanian","late_interval":"","latitude":44.25,"longitude":103.333336,"country":"MN","state":"Omnogov","county":"","comment":"Toogreeg Shire, 50 km W of Bayn Dzak, Omnogov","formation":"Djadokhta","lithology":"sandstone","lithology_description":"ETE rock type adj: 0, ETE lithology comments: .\\r\\n\"White-yellowish sand and sandstone\"; \"poorly cemented white, fine-grained sandstones. Megascopic sedimentary structures are usually absent, and only rarely medium- or large-scale cross-bedded units of tabular type can be seen. The sandstones contain very numerous oval or flat bodies of tough sandstone covered by ferruginous desert varnish and regular horizons of ferruginous cementation developed within sandstone beds. (10453)","old_latitude":39.15,"old_longitude":98.4},{"id":"220091","name":"Protoceratops andrewsi","rank":"species","early_interval":"campanian","late_interval":"","latitude":44.25,"longitude":103.333336,"country":"MN","state":"Omnogov","county":"","comment":"Toogreeg Shire, 50 km W of Bayn Dzak, Omnogov","formation":"Djadokhta","lithology":"sandstone","lithology_description":"ETE rock type adj: 0, ETE lithology comments: .\\r\\n\"White-yellowish sand and sandstone\"; \"poorly cemented white, fine-grained sandstones. Megascopic sedimentary structures are usually absent, and only rarely medium- or large-scale cross-bedded units of tabular type can be seen. The sandstones contain very numerous oval or flat bodies of tough sandstone covered by ferruginous desert varnish and regular horizons of ferruginous cementation developed within sandstone beds. (10453)","old_latitude":39.15,"old_longitude":98.4},{"id":"220162","name":"Allosaurus","rank":"genus","early_interval":"kimmeridgian","late_interval":"tithonian","latitude":40.423611,"longitude":-109.205833,"country":"US","state":"Utah","county":"Uintah","comment":"northern part of Dinosaur National Monument","formation":"Morrison","lithology":"not reported","lithology_description":"","old_latitude":27.91,"old_longitude":-43.56},{"id":"220163","name":"Diplodocus","rank":"genus","early_interval":"kimmeridgian","late_interval":"tithonian","latitude":40.423611,"longitude":-109.205833,"country":"US","state":"Utah","county":"Uintah","comment":"northern part of Dinosaur National Monument","formation":"Morrison","lithology":"not reported","lithology_description":"","old_latitude":27.91,"old_longitude":-43.56},{"id":"220164","name":"Stegosaurus","rank":"genus","early_interval":"kimmeridgian","late_interval":"tithonian","latitude":40.423611,"longitude":-109.205833,"country":"US","state":"Utah","county":"Uintah","comment":"northern part of Dinosaur National Monument","formation":"Morrison","lithology":"not reported","lithology_description":"","old_latitude":27.91,"old_longitude":-43.56},{"id":"220197","name":"Dimetrodon","rank":"genus","early_interval":"artinskian","late_interval":"","latitude":34.125999,"longitude":-98.621597,"country":"US","state":"Texas","county":"Wichita","comment":"","formation":"Bead Mountain","lithology":"","lithology_description":"ETE rock type adj: 0, ETE lithology comments: 0","old_latitude":-0.85,"old_longitude":-29.78},{"id":"220226","name":"Iguanodon bernissartensis","rank":"species","early_interval":"aptian","late_interval":"","latitude":51.434166,"longitude":8.632222,"country":"DE","state":"Sauerland","county":"","comment":"village of Nehden, near Brilon, in Sauerland; in an open-cast quarry","formation":"","lithology":"claystone","lithology_description":"ETE rock type adj: 0, ETE lithology comments: 0","old_latitude":40.93,"old_longitude":33.25},{"id":"220228","name":"Iguanodon bernissartensis","rank":"species","early_interval":"aptian","late_interval":"","latitude":51.434166,"longitude":8.632222,"country":"DE","state":"Sauerland","county":"","comment":"village of Nehden, near Brilon, in Sauerland; in an open-cast quarry","formation":"","lithology":"claystone","lithology_description":"ETE rock type adj: 0, ETE lithology comments: 0","old_latitude":40.93,"old_longitude":33.25},{"id":"225582","name":"Diplodocus longus","rank":"species","early_interval":"tithonian","late_interval":"","latitude":40.441387,"longitude":-109.300552,"country":"US","state":"Utah","county":"Uintah","comment":"The \"Carnegie Quarry\" (quarry exhibit wall), E of Vernal, now the main visitor center in Dinosaur National Monument. A sandstone hogback in sec. 26, T4S, R23E, Salt Lake meridian.","formation":"Morrison","lithology":"sandstone","lithology_description":"sandstone with mud and carbonate clasts, white to gray, medium sorted","old_latitude":29.36,"old_longitude":-43.88},{"id":"225583","name":"Apatosaurus","rank":"genus","early_interval":"tithonian","late_interval":"","latitude":40.441387,"longitude":-109.300552,"country":"US","state":"Utah","county":"Uintah","comment":"The \"Carnegie Quarry\" (quarry exhibit wall), E of Vernal, now the main visitor center in Dinosaur National Monument. A sandstone hogback in sec. 26, T4S, R23E, Salt Lake meridian.","formation":"Morrison","lithology":"sandstone","lithology_description":"sandstone with mud and carbonate clasts, white to gray, medium sorted","old_latitude":29.36,"old_longitude":-43.88},{"id":"225584","name":"Camarasaurus lentus","rank":"species","early_interval":"tithonian","late_interval":"","latitude":40.441387,"longitude":-109.300552,"country":"US","state":"Utah","county":"Uintah","comment":"The \"Carnegie Quarry\" (quarry exhibit wall), E of Vernal, now the main visitor center in Dinosaur National Monument. A sandstone hogback in sec. 26, T4S, R23E, Salt Lake meridian.","formation":"Morrison","lithology":"sandstone","lithology_description":"sandstone with mud and carbonate clasts, white to gray, medium sorted","old_latitude":29.36,"old_longitude":-43.88},{"id":"225585","name":"Stegosaurus","rank":"genus","early_interval":"tithonian","late_interval":"","latitude":40.441387,"longitude":-109.300552,"country":"US","state":"Utah","county":"Uintah","comment":"The \"Carnegie Quarry\" (quarry exhibit wall), E of Vernal, now the main visitor center in Dinosaur National Monument. A sandstone hogback in sec. 26, T4S, R23E, Salt Lake meridian.","formation":"Morrison","lithology":"sandstone","lithology_description":"sandstone with mud and carbonate clasts, white to gray, medium sorted","old_latitude":29.36,"old_longitude":-43.88},{"id":"248620","name":"Edmontosaurus annectens","rank":"species","early_interval":"maastrichtian","late_interval":"","latitude":47.633331,"longitude":-107.383331,"country":"US","state":"Montana","county":"Garfield","comment":"Coordinates from UCMP website","formation":"Hell Creek","lithology":"sandstone","lithology_description":"a sandstone channel filling\" (Hutchinson and Chiappe 1998)","old_latitude":58.59,"old_longitude":-65.64},{"id":"256118","name":"Triceratops prorsus","rank":"species","early_interval":"maastrichtian","late_interval":"","latitude":46.466389,"longitude":-104.021111,"country":"US","state":"North Dakota","county":"Slope","comment":"0.6 km north of Cannonball Creek on land leased by Lyle Tennant from the US Forest Service. SE1/4, NE1/4, NE1/4, NW1/4, sec 32, T135N, R106W, Badland Draw Quadrangle MT-ND, 7.5 minute series, 1:24,000. West of the road, north of Pretty Butte, 29 miles NW of Marmarth, ND.","formation":"Hell Creek","lithology":"claystone","lithology_description":"light gray, bentonitic claystone","old_latitude":56.59,"old_longitude":-62.11},{"id":"256575","name":"Iguanodon mantelli","rank":"species","early_interval":"barremian","late_interval":"aptian","latitude":50.617344,"longitude":-1.371491,"country":"UK","state":"England","county":"Isle of Wight","comment":"150 yards west of Cowlease Chine, Isle of Wight","formation":"Vectis","lithology":"shale","lithology_description":"","old_latitude":37.84,"old_longitude":24.15},{"id":"259976","name":"Spinosaurus aegyptiacus","rank":"species","early_interval":"cenomanian","late_interval":"","latitude":28.43112,"longitude":28.914782,"country":"EG","state":"Matruh","county":"","comment":"3 km north of Gebel el Dist, in the plain at the base of the Baharîje Valley, Baharîje Oasis, near Marsa Matruh, Egypt","formation":"Baharîje","lithology":"sandstone","lithology_description":"whitish-gray to yellowish, clayey, gypsum-free sandstone, below a cover of 30 cm of ferruginous sandstone and 1 m of hard clay","old_latitude":12.94,"old_longitude":34.83},{"id":"262179","name":"Spinosaurus aegyptiacus","rank":"species","early_interval":"cenomanian","late_interval":"","latitude":30.505667,"longitude":-4.836939,"country":"MA","state":"Er Rachida","county":"","comment":"near Gara es Sbaa, about 50 km NE of Hassi Zguilma and 60 km SW of Ouzina and Taouz, Kem Kem region, Morocco; E of oasis of Er Remlia","formation":"Aoufous","lithology":"sandstone","lithology_description":"Upper unit: fining upward, red to tan, coarse- to fine-grained sandstones intercalated with variegated mudstones in roughly equal amounts. Bioturbation, ripple marks, mud cracks, footprints horizons, and soil slickensides locally abundant. Gypsum rare to absent. Only sandstones are fossiliferous.\\r\\nLower unit: reddish, fine- to coarse-grained, planar and cross-stratified sandstone with lateral accretion deposits. Pebble channels, vertical burrows, and rolled vertebrate fossils are common above the basal 15 m. Soft-sediment deformation, mudstone lenses and gypsum are rare.","old_latitude":25.22,"old_longitude":6.52},{"id":"263808","name":"Carnotaurus sastrei","rank":"species","early_interval":"campanian","late_interval":"maastrichtian","latitude":-43,"longitude":-67.547501,"country":"AR","state":"Chubut","county":"Telsen","comment":"Estancia Pocho Sastre, near Bajada Moreno, Telsen Department, Chubut Province, Patagonia, Argentina","formation":"La Colonia","lithology":"siliciclastic","lithology_description":"embedded in a hematite concretion, but lithology not described","old_latitude":-43.84,"old_longitude":-51.44},{"id":"280099","name":"Edmontosaurus annectens","rank":"species","early_interval":"maastrichtian","late_interval":"","latitude":43.049999,"longitude":-104.48333,"country":"US","state":"Wyoming","county":"Niobrara","comment":"Coordinates are for Niobrara County only; scale refers to size of site itself (0.5 km^2)","formation":"Lance","lithology":"not reported","lithology_description":"","old_latitude":53.57,"old_longitude":-65.9},{"id":"280101","name":"Tyrannosaurus rex","rank":"species","early_interval":"maastrichtian","late_interval":"","latitude":43.049999,"longitude":-104.48333,"country":"US","state":"Wyoming","county":"Niobrara","comment":"Coordinates are for Niobrara County only; scale refers to size of site itself (0.5 km^2)","formation":"Lance","lithology":"not reported","lithology_description":"","old_latitude":53.57,"old_longitude":-65.9},{"id":"280868","name":"Iguanodon","rank":"genus","early_interval":"hauterivian","late_interval":"aptian","latitude":50.633331,"longitude":-1.383333,"country":"UK","state":"England","county":"Isle of Wight","comment":"Brixton (now Brighstone) Bay, near Cowleaze Chine and Barnes Chine, SW shore, Isle of Wight","formation":"","lithology":"claystone","lithology_description":"sandy clay-stone","old_latitude":36.64,"old_longitude":23.72},{"id":"281625","name":"Mosasaurus","rank":"genus","early_interval":"maastrichtian","late_interval":"","latitude":39.783333,"longitude":-75.166664,"country":"US","state":"New Jersey","county":"Gloucester","comment":"Inversand Company marl pit at Sewell, Mantua Township","formation":"Navesink","lithology":"marl","lithology_description":"","old_latitude":41.18,"old_longitude":-38.47},{"id":"281626","name":"Mosasaurus hoffmanni","rank":"species","early_interval":"maastrichtian","late_interval":"","latitude":39.783333,"longitude":-75.166664,"country":"US","state":"New Jersey","county":"Gloucester","comment":"Inversand Company marl pit at Sewell, Mantua Township","formation":"Navesink","lithology":"marl","lithology_description":"","old_latitude":41.18,"old_longitude":-38.47},{"id":"281687","name":"Mosasaurus","rank":"genus","early_interval":"maastrichtian","late_interval":"paleocene","latitude":39.783333,"longitude":-75.166664,"country":"US","state":"New Jersey","county":"Gloucester","comment":"Inversand Company marl pit, Sewell","formation":"Hornerstown","lithology":"sandstone","lithology_description":"","old_latitude":40.92,"old_longitude":-39.82},{"id":"287919","name":"Edmontosaurus","rank":"genus","early_interval":"maastrichtian","late_interval":"","latitude":43.299999,"longitude":-104.366669,"country":"US","state":"Wyoming","county":"Niobrara","comment":"from \"a blowout","formation":"Lance","lithology":"sandstone","lithology_description":"yellowish-gray, well sorted and rounded, medium to coarse-grained quartz sandstone... usually friable","old_latitude":53.77,"old_longitude":-65.59},{"id":"287920","name":"Triceratops","rank":"genus","early_interval":"maastrichtian","late_interval":"","latitude":43.299999,"longitude":-104.366669,"country":"US","state":"Wyoming","county":"Niobrara","comment":"from \"a blowout","formation":"Lance","lithology":"sandstone","lithology_description":"yellowish-gray, well sorted and rounded, medium to coarse-grained quartz sandstone... usually friable","old_latitude":53.77,"old_longitude":-65.59},{"id":"289106","name":"Mosasaurus hoffmanni","rank":"species","early_interval":"maastrichtian","late_interval":"","latitude":38.914715,"longitude":-76.85965,"country":"US","state":"Maryland","county":"Prince George's","comment":"Cattail Brook on the Wilson Farm off Sheriff Road near Brightseat.","formation":"Severn","lithology":"not reported","lithology_description":"none given","old_latitude":40.97,"old_longitude":-39.91},{"id":"289116","name":"Mosasaurus hoffmanni","rank":"species","early_interval":"maastrichtian","late_interval":"","latitude":38.909378,"longitude":-76.84597,"country":"US","state":"Maryland","county":"Prince George's","comment":"Landover, SE of intersection of Interstate Rte I-495 (Capital Beltway) and MD Rte 202 (Landover Rd). McCormick construction site, developed as Inglewood Business Center (SE of Brouwers & Hazel's Loc. 2)","formation":"Severn","lithology":"not reported","lithology_description":"none given","old_latitude":40.96,"old_longitude":-39.9},{"id":"289117","name":"Mosasaurus conodon","rank":"species","early_interval":"maastrichtian","late_interval":"","latitude":38.909378,"longitude":-76.84597,"country":"US","state":"Maryland","county":"Prince George's","comment":"Landover, SE of intersection of Interstate Rte I-495 (Capital Beltway) and MD Rte 202 (Landover Rd). McCormick construction site, developed as Inglewood Business Center (SE of Brouwers & Hazel's Loc. 2)","formation":"Severn","lithology":"not reported","lithology_description":"none given","old_latitude":40.96,"old_longitude":-39.9},{"id":"289123","name":"Mosasaurus hoffmanni","rank":"species","early_interval":"maastrichtian","late_interval":"","latitude":38.887878,"longitude":-76.848473,"country":"US","state":"Maryland","county":"Prince George's","comment":"Excavations for and exposures behind the mall SW of intersection of Rte I-495 and Central Avenue in Capitol Heights","formation":"Severn","lithology":"not reported","lithology_description":"none given","old_latitude":40.94,"old_longitude":-39.91},{"id":"289124","name":"Mosasaurus dekayi","rank":"species","early_interval":"maastrichtian","late_interval":"","latitude":38.887878,"longitude":-76.848473,"country":"US","state":"Maryland","county":"Prince George's","comment":"Excavations for and exposures behind the mall SW of intersection of Rte I-495 and Central Avenue in Capitol Heights","formation":"Severn","lithology":"not reported","lithology_description":"none given","old_latitude":40.94,"old_longitude":-39.91},{"id":"291021","name":"Tyrannosaurus rex","rank":"species","early_interval":"maastrichtian","late_interval":"","latitude":40.386391,"longitude":-104.491669,"country":"US","state":"Colorado","county":"Weld","comment":"apparently near Crow Creek in \"central Weld County\"\\r\\nthe site \"spans an area of about 100m2\" (Wilson et al. 2010)","formation":"Laramie","lithology":"mudstone","lithology_description":"dark silty shales and clays of overbank deposits overlain by a yellow cross-bedded, lenticular sandstone\" (Carpenter 1979)\\r\\n\"upper very fine to lower fine sandstone beds alternating with grey mudstone and siltstone beds with ripple marks\" with \"abundant iron oxide concretions and weathered layers, especially near the top of the section, which is about 5 m high\"; \"most fossils... are found at the base of the exposures in a dark grey mudstone layer\" (Wilson et al. 2010)","old_latitude":51.14,"old_longitude":-67.66},{"id":"291023","name":"Triceratops","rank":"genus","early_interval":"maastrichtian","late_interval":"","latitude":40.386391,"longitude":-104.491669,"country":"US","state":"Colorado","county":"Weld","comment":"apparently near Crow Creek in \"central Weld County\"\\r\\nthe site \"spans an area of about 100m2\" (Wilson et al. 2010)","formation":"Laramie","lithology":"mudstone","lithology_description":"dark silty shales and clays of overbank deposits overlain by a yellow cross-bedded, lenticular sandstone\" (Carpenter 1979)\\r\\n\"upper very fine to lower fine sandstone beds alternating with grey mudstone and siltstone beds with ripple marks\" with \"abundant iron oxide concretions and weathered layers, especially near the top of the section, which is about 5 m high\"; \"most fossils... are found at the base of the exposures in a dark grey mudstone layer\" (Wilson et al. 2010)","old_latitude":51.14,"old_longitude":-67.66},{"id":"292825","name":"Mosasaurus mangahouangae","rank":"species","early_interval":"campanian","late_interval":"maastrichtian","latitude":-39,"longitude":176.75,"country":"NZ","state":"","county":"","comment":"Mangahouanga Stream, inland Hawke's Bay, North Island, New Zealand. Fossil Record File locality number V19/f6909 (GS11359)","formation":"Tahora","lithology":"sandstone","lithology_description":"fossils from \"concretionary boulders\" in the stream bed. \"hard calcareous concretions\"; \"the sediments of the concretions range from fine siltstone to coarse sandstone","old_latitude":-54.98,"old_longitude":-157.07},{"id":"295888","name":"Dimetrodon","rank":"genus","early_interval":"sakmarian","late_interval":"","latitude":33.595554,"longitude":-98.625275,"country":"US","state":"Texas","county":"Archer","comment":"Elm Creek, stated by Cummins to be 12 miles southwest of Archer City; its exact position is uncertain..\" Lat long is for Archer City, but see detailed locality map in Romer 1928.","formation":"Putnam","lithology":"claystone","lithology_description":"red-beds, \"strata consist mainly of red or variegated clays and shales with sandstones and conglomerates.\"\\r\\n\\r\\n","old_latitude":-1.62,"old_longitude":-30.26},{"id":"295895","name":"Dimetrodon","rank":"genus","early_interval":"sakmarian","late_interval":"","latitude":33.595554,"longitude":-98.625275,"country":"US","state":"Texas","county":"Archer","comment":"Three Forks of the Little Wichita, northwest of Archer City.\" Lat long is for Archer City, but see detailed locality map in Romer 1928.","formation":"Putnam","lithology":"claystone","lithology_description":"red-beds, \"strata consist mainly of red or variegated clays and shales with sandstones and conglomerates.\"\\r\\n\\r\\n","old_latitude":-1.62,"old_longitude":-30.26},{"id":"295900","name":"Dimetrodon limbatus","rank":"species","early_interval":"sakmarian","late_interval":"","latitude":33.595554,"longitude":-98.625275,"country":"US","state":"Texas","county":"Archer","comment":" \"Shell Point,\" a Boll locality whose exact position is unknown, but which was probably not far from the Three Forks [of the Little Wichita collection].\" Lat long is for Archer City, but see detailed locality map in Romer 1928.","formation":"Putnam","lithology":"claystone","lithology_description":"red-beds, \"strata consist mainly of red or variegated clays and shales with sandstones and conglomerates.\"\\r\\n\\r\\n","old_latitude":-1.62,"old_longitude":-30.26},{"id":"295903","name":"Dimetrodon","rank":"genus","early_interval":"sakmarian","late_interval":"","latitude":33.595554,"longitude":-98.625275,"country":"US","state":"Texas","county":"Archer","comment":"Long Creek, which empties into the north side of the Little Wichita due north of Archer City (not northwest of the copper mines, as stated by Cummins). \"Lat long is for Archer City, but see detailed locality map in Romer 1928.","formation":"Putnam","lithology":"claystone","lithology_description":"red-beds, \"strata consist mainly of red or variegated clays and shales with sandstones and conglomerates.\"\\r\\n\\r\\n","old_latitude":-1.62,"old_longitude":-30.26},{"id":"295909","name":"Dimetrodon","rank":"genus","early_interval":"artinskian","late_interval":"","latitude":33.595554,"longitude":-98.625275,"country":"US","state":"Texas","county":"Archer","comment":"This locality is \"...4 miles west of Archer City; on the east bank, near the old Archer-Seymour (now Archer-Megargel) road.\" Lat long is for Archer City, but see detailed locality map in Romer 1928. \"Zone 1. Lower Wichita; to Godwin Creek; Admiral Formation?","formation":"Admiral","lithology":"shale","lithology_description":"red-beds, \"a series of typical red beds, consisting of clays, sandstone and shales, mostly red in color, and devoid of limestones.\"\\r\\n\\r\\nterrestrial and near-shore deposition","old_latitude":-1.3,"old_longitude":-30.06},{"id":"295913","name":"Dimetrodon","rank":"genus","early_interval":"artinskian","late_interval":"","latitude":33.816113,"longitude":-98.694725,"country":"US","state":"Texas","county":"Archer","comment":"Case's notes for 1906 show that a number of specimens were collected south of Holliday and near the Little Wichita, but the exact location cannot now be ascertained.\" That being said, the detailed locality map in Romer 1928 marks locality 11 at the head of Long Creek, ~7 mi due south of Holliday. \"Zone 1. Lower Wichita; to Godwin Creek; Admiral Formation?\" Lat long is for Holliday.","formation":"Admiral","lithology":"shale","lithology_description":"red-beds, \"a series of typical red beds, consisting of clays, sandstone and shales, mostly red in color, and devoid of limestones.\"\\r\\n","old_latitude":-1.09,"old_longitude":-30},{"id":"295922","name":"Dimetrodon limbatus","rank":"species","early_interval":"artinskian","late_interval":"","latitude":33.816113,"longitude":-98.694725,"country":"US","state":"Texas","county":"Wichita","comment":"10 miles west of Wichita Falls.\" Lat long is for Holliday, approx. 5 mi southeast of locality, but see detailed locality map in Romer 1928. \"Zone 1. Lower Wichita; to Godwin Creek; Admiral Formation?","formation":"Admiral","lithology":"shale","lithology_description":"red-beds, \"a series of typical red beds, consisting of clays, sandstone and shales, mostly red in color, and devoid of limestones.\"\\r\\n\\r\\n","old_latitude":-1.09,"old_longitude":-30},{"id":"295923","name":"Dimetrodon natalis","rank":"species","early_interval":"artinskian","late_interval":"","latitude":33.816113,"longitude":-98.694725,"country":"US","state":"Texas","county":"Wichita","comment":"10 miles west of Wichita Falls.\" Lat long is for Holliday, approx. 5 mi southeast of locality, but see detailed locality map in Romer 1928. \"Zone 1. Lower Wichita; to Godwin Creek; Admiral Formation?","formation":"Admiral","lithology":"shale","lithology_description":"red-beds, \"a series of typical red beds, consisting of clays, sandstone and shales, mostly red in color, and devoid of limestones.\"\\r\\n\\r\\n","old_latitude":-1.09,"old_longitude":-30},{"id":"295936","name":"Dimetrodon","rank":"genus","early_interval":"artinskian","late_interval":"","latitude":33.601391,"longitude":-98.92083,"country":"US","state":"Texas","county":"Archer","comment":"specimens appear to come from the southeast side of this creek.\" See detailed locality map in Romer 1928. \"Zone 1. Lat long is for Godwin Creek, USGS Dundee SW, Archer County.","formation":"Admiral","lithology":"shale","lithology_description":"red-beds, \"a series of typical red beds, consisting of clays, sandstone and shales, mostly red in color, and devoid of limestones.\"\\r\\n\\r\\n","old_latitude":-1.17,"old_longitude":-30.27},{"id":"295941","name":"Dimetrodon","rank":"genus","early_interval":"artinskian","late_interval":"","latitude":33.740276,"longitude":-98.901947,"country":"US","state":"Texas","county":"Archer","comment":"Case recorded a number of specimens from Scalen's ranch. This was situated somewhere to the south (and probably to the east) of Dundee; its location is not known to me.\" \\nAMNH records for Case's 1908 Permian, Belle Plains Formation collections as Scalen's Ranch, Scalen's place S, and Scalen's pasture localities. \\nSee detailed locality map in Romer 1928. \"Zone 2. Middle Wichita; to the Beaverburk Limestone; Belle Plains Formation?\" Lat long is for Dundee.","formation":"Belle Plains","lithology":"claystone","lithology_description":"red-beds and \"6-inch limestone\"\\r\\n\\r\\n","old_latitude":-1.06,"old_longitude":-30.18},{"id":"295946","name":"Dimetrodon","rank":"genus","early_interval":"artinskian","late_interval":"","latitude":33.740276,"longitude":-98.901947,"country":"US","state":"Texas","county":"Baylor","comment":"Cox's Camp (Cummins); Wooderum's pasture (Case). Exposures on the north side of the Little Wichita about opposite the mouth of Goodwin Creek.\" See detailed locality map in Romer 1928. \"Zone 2. Middle Wichita; to the Beaverburk Limestone; Belle Plains Formation?\" Lat long is for Dundee, approx. 7 mi north of locality.","formation":"Belle Plains","lithology":"claystone","lithology_description":"red-beds and \"6-inch limestone\"\\r\\n\\r\\n","old_latitude":-1.06,"old_longitude":-30.18},{"id":"295948","name":"Dimetrodon","rank":"genus","early_interval":"artinskian","late_interval":"","latitude":33.687222,"longitude":-99.022781,"country":"US","state":"Texas","county":"Baylor","comment":"Specimens so labeled are from the exposures below the Beaverburk on the west side of the Godwin Creek Valley, near Dagget Creek, etc.\" See detailed locality map in Romer 1928. \"Zone 2. Middle Wichita; to the Beaverburk Limestone; Belle Plains Formation?\" Lat long is for Fulda, approx. 5 mi north of locality.","formation":"Belle Plains","lithology":"claystone","lithology_description":"red-beds and \"6-inch limestone\"\\r\\n\\r\\n","old_latitude":-1.05,"old_longitude":-30.3},{"id":"295954","name":"Dimetrodon booneorum","rank":"species","early_interval":"artinskian","late_interval":"","latitude":33.687222,"longitude":-99.022781,"country":"US","state":"Texas","county":"Baylor","comment":"Numerous exposures occur in the valley of the Little Wichita south and southeast of Fulda.\" Specimens are labeled with various locality names, see aka above. See detailed locality map in Romer 1928. \"Zone 2. Middle Wichita; to the Beaverburk Limestone; Belle Plains Formation?\" Lat long is for Fulda, approx. 2 mi north of locality.","formation":"Petrolia","lithology":"claystone","lithology_description":"red-beds and \"6-inch limestone\"\\r\\n\\r\\n","old_latitude":-1.05,"old_longitude":-30.3},{"id":"295963","name":"Dimetrodon","rank":"genus","early_interval":"artinskian","late_interval":"","latitude":33.740276,"longitude":-98.901947,"country":"US","state":"Texas","county":"Archer","comment":"Slippery Creek is a tributary of the Little Wichita on the north side. Along it's course, nearly due south of Dundee, is a series of breaks. Lyle's, Pearce's, and Young's localities of Case were in this neighborhood.\" See detailed locality map in Romer 1928. \"Zone 2. Middle Wichita; to the Beaverburk Limestone; Belle Plains Formation?\" Lat long is for Dundee, approx. 4 mi due north of locality.","formation":"Belle Plains","lithology":"claystone","lithology_description":"red-beds and \"6-inch limestone\"\\r\\n\\r\\n","old_latitude":-1.06,"old_longitude":-30.18},{"id":"295972","name":"Dimetrodon","rank":"genus","early_interval":"artinskian","late_interval":"","latitude":33.867222,"longitude":-98.843887,"country":"US","state":"Texas","county":"Archer","comment":"Camp Creek, 4 miles west of Tit Mountain.\" See detailed locality map in Romer 1928. \"Zone 2. Middle Wichita; to the Beaverburk Limestone; Belle Plains Formation?\" Lat long is for Camp Creek.","formation":"Belle Plains","lithology":"claystone","lithology_description":"red-beds and \"6-inch limestone\"\\r\\n\\r\\n","old_latitude":-0.98,"old_longitude":-30.07},{"id":"295978","name":"Dimetrodon","rank":"genus","early_interval":"artinskian","late_interval":"","latitude":33.687222,"longitude":-99.022781,"country":"US","state":"Texas","county":"Baylor","comment":"See detailed locality map in Romer 1928. \"Zone 2. Middle Wichita; to the Beaverburk Limestone; Belle Plains Formation?\" Lat long is for Fulda, approx. 6 mi southwest of locality.","formation":"Belle Plains","lithology":"claystone","lithology_description":"red-beds and \"6-inch limestone\"\\r\\n\\r\\n","old_latitude":-1.05,"old_longitude":-30.3},{"id":"295984","name":"Dimetrodon macrospondylus","rank":"species","early_interval":"artinskian","late_interval":"","latitude":33.740276,"longitude":-98.901947,"country":"US","state":"Texas","county":"Archer","comment":"Tit Mountain or Corn Hill, an elevation just northeast of Dundee\" See detailed locality map in Romer 1928. \"Zone 2. Middle Wichita; to the Beaverburk Limestone; Belle Plains Formation?\" Lat long is for Dundee.","formation":"Belle Plains","lithology":"claystone","lithology_description":"red-beds and \"6-inch limestone\"\\r\\n\\r\\n","old_latitude":-1.06,"old_longitude":-30.18},{"id":"295986","name":"Dimetrodon","rank":"genus","early_interval":"artinskian","late_interval":"kungurian","latitude":33.687222,"longitude":-99.022781,"country":"US","state":"Texas","county":"","comment":"lower portion of this [limestone] series northeast of Fulda.\" See detailed locality map in Romer 1928. \"Zone 3. Upper Wichita; to the Leuders Limestone; Clyde Formation?\" Lat long is for Fulda. Numbered \"26\" with taxonomic list and on map, but is incorrectly numbered \"25\" in text.","formation":"Waggoner Ranch","lithology":"limestone","lithology_description":"limestones, often impure, with blue and red shales.\"\\r\\n\\r\\n","old_latitude":-1,"old_longitude":-30.27},{"id":"295992","name":"Dimetrodon","rank":"genus","early_interval":"artinskian","late_interval":"kungurian","latitude":33.816113,"longitude":-98.694725,"country":"US","state":"Texas","county":"Baylor","comment":"Description says this locality is in \"western Wichita County\" but it is not shown on the locality map in Romer 1928. \"Zone 3. Upper Wichita; to the Leuders Limestone; Clyde Formation?\" Lat long is for Holliday in Archer County. Numbered \"27\" with taxonomic list, but is incorrectly numbered \"26\" in text.","formation":"Waggoner Ranch","lithology":"limestone","lithology_description":"limestones, often impure, with blue and red shales.\"\\r\\n\\r\\n","old_latitude":-1.03,"old_longitude":-29.97},{"id":"295994","name":"Dimetrodon","rank":"genus","early_interval":"artinskian","late_interval":"kungurian","latitude":33.687222,"longitude":-99.022781,"country":"US","state":"Texas","county":"Baylor","comment":"near the mouth of this creek southeast of Maybelle.\" See detailed locality map in Romer 1928. \"Zone 3. Upper Wichita; to the Leuders Limestone; Clyde Formation?\" Lat long is for Fulda. Numbered \"28\" with taxonomic list and on map, but is incorrectly numbered \"27\" in text. Listed as Miller Creek in Williston 1915.","formation":"Waggoner Ranch","lithology":"limestone","lithology_description":"limestones, often impure, with blue and red shales.\"\\r\\n\\r\\n","old_latitude":-1,"old_longitude":-30.27},{"id":"296003","name":"Dimetrodon","rank":"genus","early_interval":"artinskian","late_interval":"kungurian","latitude":33.733334,"longitude":-99.091667,"country":"US","state":"Texas","county":"Baylor","comment":"near Mitchell and Timber Creeks, northeast of Maybelle in the old Bar X pasture.\" See detailed locality map in Romer 1928. \"Zone 3. Upper Wichita; to the Leuders Limestone; Clyde Formation?\". Numbered \"29\" with taxonomic list and on map, but is incorrectly numbered \"28\" in text. Lat long is for area enclosed by Mitchell Creek (W), Big Wichita River (N), Timber Creek (E), and U.S. 277 (S).","formation":"Waggoner Ranch","lithology":"limestone","lithology_description":"limestones, often impure, with blue and red shales.","old_latitude":-0.93,"old_longitude":-30.29},{"id":"296009","name":"Dimetrodon","rank":"genus","early_interval":"kungurian","late_interval":"","latitude":33.755001,"longitude":-99.144997,"country":"US","state":"Texas","county":"Baylor/Wilbarger","comment":"On the north side of the Big Wichita, not far below the Leauders\" Limestone. See detailed locality map in Romer 1928. \"Zone 3. Upper Wichita; to the Leuders Limestone; Clyde Formation?\" Lat long is for Lake Kemp dam. Numbered \"30\" with taxonomic list and on map, but is incorrectly numbered \"29\" in text.","formation":"Waggoner Ranch","lithology":"limestone","lithology_description":"limestones, often impure, with blue and red shales.\"\\r\\n\\r\\n","old_latitude":1.73,"old_longitude":-28.88},{"id":"296014","name":"Dimetrodon","rank":"genus","early_interval":"artinskian","late_interval":"kungurian","latitude":33.755001,"longitude":-99.144997,"country":"US","state":"Texas","county":"Baylor","comment":"On the south side [of the Big Wichita], farther west..\" See detailed locality map in Romer 1928. \"Zone 3. Upper Wichita; to the Leuders Limestone; Clyde Formation?\" Lat long is for Lake Kemp dam. Numbered \"31\" with taxonomic list and on map, but is incorrectly numbered \"30\" in text.","formation":"Waggoner Ranch","lithology":"limestone","lithology_description":"limestones, often impure, with blue and red shales.\"\\r\\n\\r\\n","old_latitude":-0.89,"old_longitude":-30.32},{"id":"296023","name":"Dimetrodon limbatus","rank":"species","early_interval":"artinskian","late_interval":"kungurian","latitude":33.755001,"longitude":-99.144997,"country":"US","state":"Texas","county":"Baylor","comment":"This trail crossed the Big Wichita about a mile east of the present Kemp Lake dam. South of this it ran in Zone 3, and the same is true for several miles to the north; but while the finds are probably in this zone, the exact horizon cannot be stated.\" The length of the trail is relatively well-constrained at about 2 - 3 miles. See detailed locality map in Romer 1928. \"Zone 3. Upper Wichita; to the Leuders Limestone; Clyde Formation?\" Lat long is for Kemp Lake dam. Numbered \"32\" with taxonomic list, but is incorrectly numbered \"31\" in text.","formation":"Waggoner Ranch","lithology":"limestone","lithology_description":"limestones, often impure, with blue and red shales.\"\\r\\n\\r\\n","old_latitude":-0.89,"old_longitude":-30.32},{"id":"296048","name":"Dimetrodon giganhomogenes","rank":"species","early_interval":"kungurian","late_interval":"","latitude":33.766666,"longitude":-99.216667,"country":"US","state":"Texas","county":"Baylor/Willbarger","comment":"Collection comprises outcrops that today are at the bottom of Lake Kemp and outcrops in the northern vicinity of Lake Kemp. See detailed locality map in Romer 1928. \"Zone 4. Lower Clear Fork\". Lat long is for Kemp Lake near the today's mouths of West, Middle, and East Coffee Creek.","formation":"Arroyo","lithology":"claystone","lithology_description":"red beds... red clays, with small amounts of sandstone and conglomerates.\"\\r\\n","old_latitude":1.77,"old_longitude":-28.93},{"id":"296049","name":"Dimetrodon dollovianus","rank":"species","early_interval":"kungurian","late_interval":"","latitude":33.766666,"longitude":-99.216667,"country":"US","state":"Texas","county":"Baylor/Willbarger","comment":"Collection comprises outcrops that today are at the bottom of Lake Kemp and outcrops in the northern vicinity of Lake Kemp. See detailed locality map in Romer 1928. \"Zone 4. Lower Clear Fork\". Lat long is for Kemp Lake near the today's mouths of West, Middle, and East Coffee Creek.","formation":"Arroyo","lithology":"claystone","lithology_description":"red beds... red clays, with small amounts of sandstone and conglomerates.\"\\r\\n","old_latitude":1.77,"old_longitude":-28.93},{"id":"296068","name":"Dimetrodon","rank":"genus","early_interval":"kungurian","late_interval":"","latitude":33.755833,"longitude":-99.23333,"country":"US","state":"Texas","county":"Baylor","comment":"about 5 miles west of the Vernon road in the valley of the Wichita, not far from Indian Creek.\" (Williston 1911) \\n\\n\"collections are mainly from the region near its mouth [Lower Clear Fork].\" See detailed locality map in Romer 1928. \" Zone 4. Lower Clear Fork. Lat long is for Kemp Lake near today's mouth of Indian Creek. Numbered \"35\" with taxonomic list and on map, but is incorrectly numbered \"35\" in Romer text.","formation":"Arroyo","lithology":"claystone","lithology_description":"red beds... red clays, with small amounts of sandstone and conglomerates.\"\\r\\n","old_latitude":1.77,"old_longitude":-28.95},{"id":"296076","name":"Dimetrodon","rank":"genus","early_interval":"kungurian","late_interval":"","latitude":33.755001,"longitude":-99.144997,"country":"US","state":"Texas","county":"Baylor","comment":"A tributary of the Big Wichita on the south side, north of Seymour; the collections were made near the head of the creek..\" See detailed locality map in Romer 1928. \"Zone 4. Lower Clear Fork. Lat long is for Kemp Lake. Numbered \"36\" with taxonomic list and on map, but is incorrectly numbered \"35\" in text.","formation":"Arroyo","lithology":"claystone","lithology_description":"red beds... red clays, with small amounts of sandstone and conglomerates.\"\\r\\n","old_latitude":1.73,"old_longitude":-28.88},{"id":"296096","name":"Dimetrodon limbatus","rank":"species","early_interval":"kungurian","late_interval":"","latitude":33.700001,"longitude":-99.26667,"country":"US","state":"Texas","county":"Baylor","comment":"About seven miles north and somewhat west of Seymour lies Craddock's ranch, an area of 6 square miles, drained by Gray's Creek on the east and Brush Creek on the west. Numerous \"breaks\" are present in this region..\" See detailed locality map in Romer 1928. \" Zone 4. Lower Clear Fork. Lat long is for area south of Kemp Lake between Brushy Creek and Gray Creek. ","formation":"Arroyo","lithology":"claystone","lithology_description":"red beds... red clays, with small amounts of sandstone and conglomerates.\"\\r\\n","old_latitude":1.73,"old_longitude":-29},{"id":"296110","name":"Dimetrodon","rank":"genus","early_interval":"kungurian","late_interval":"","latitude":33.714722,"longitude":-99.312775,"country":"US","state":"Texas","county":"Baylor","comment":"The next creek west of Brush Creek..\" See detailed locality map in Romer 1928. \"Zone 4. Lower Clear Fork. Lat long is for Hog Creek.","formation":"Arroyo","lithology":"claystone","lithology_description":"red beds... red clays, with small amounts of sandstone and conglomerates.\"\\r\\n","old_latitude":1.77,"old_longitude":-29.02},{"id":"296130","name":"Dimetrodon grandis","rank":"species","early_interval":"kungurian","late_interval":"","latitude":33.973057,"longitude":-99.195557,"country":"US","state":"Texas","county":"Wilbarger","comment":"The upper reaches of the stream have yielded a few remains.\" See detailed locality map in Romer 1928. \"Zone 4. Lower Clear Fork. Lat long is for Beaver Creek.","formation":"Arroyo","lithology":"claystone","lithology_description":"red beds... red clays, with small amounts of sandstone and conglomerates.\"\\r\\n","old_latitude":1.94,"old_longitude":-28.81},{"id":"296131","name":"Dimetrodon","rank":"genus","early_interval":"kungurian","late_interval":"","latitude":33.973057,"longitude":-99.195557,"country":"US","state":"Texas","county":"Wilbarger","comment":"The upper reaches of the stream have yielded a few remains.\" See detailed locality map in Romer 1928. \"Zone 4. Lower Clear Fork. Lat long is for Beaver Creek.","formation":"Arroyo","lithology":"claystone","lithology_description":"red beds... red clays, with small amounts of sandstone and conglomerates.\"\\r\\n","old_latitude":1.94,"old_longitude":-28.81},{"id":"296145","name":"Dimetrodon","rank":"genus","early_interval":"sakmarian","late_interval":"artinskian","latitude":33.595554,"longitude":-98.625275,"country":"US","state":"Texas","county":"Archer","comment":"collected by Boll and Cummins are known to have been obtained from the lower portion of the course of this stream [North Fork], but cannot be exactly located.\" See detailed locality map in Romer 1928. Lat long is for Archer City.","formation":"","lithology":"claystone","lithology_description":"","old_latitude":-1.33,"old_longitude":-30.08},{"id":"296465","name":"Diplodocus longus","rank":"species","early_interval":"kimmeridgian","late_interval":"tithonian","latitude":38.539501,"longitude":-105.224701,"country":"US","state":"Colorado","county":"Fremont","comment":"11 km N of Cañon City, Colorado. NE 1/4 of SE 1/4 of sec. 28, T17S, R70W. S end of Garden Park. Site above a cliff on N side of arroyo feeding into Four Mile (= Oil) Creek","formation":"Morrison","lithology":"sandstone","lithology_description":"the bones are for the most part found in a very hard layer of sandstone, though they occasionally extend down for a short distance into the underlying clays.\" Sandstone described as \"heavily bedded\". Bones in a \"coarse to gravelly, pale yellowish white sandstone.\" Sandstone body is broadly lenticular.","old_latitude":25.19,"old_longitude":-40.92},{"id":"296498","name":"Stegosaurus","rank":"genus","early_interval":"kimmeridgian","late_interval":"tithonian","latitude":39.675598,"longitude":-105.192596,"country":"US","state":"Colorado","county":"Jefferson","comment":"eastern flank of Rocky Mountains,\" near Morrison, Jefferson Co., Colorado. Near locality of Atlantosaurus montanus. sec. 26, T4S, R70W, and possibly now part of a roadcut for the Alameda Parkway on the W side of Dinosaur Ridge","formation":"Morrison","lithology":"sandstone","lithology_description":"yellowish to orange quartzitic sandstone","old_latitude":26.27,"old_longitude":-40.53},{"id":"303972","name":"Megalosaurus","rank":"genus","early_interval":"bathonian","late_interval":"","latitude":51.985001,"longitude":-1.8,"country":"UK","state":"England","county":"North Gloucestershire","comment":"northern Cotswold Hills, 5 km NW of Stow-in-the-Wold, E of Gloucester and Cheltenham, UK National Grid Reference SP 131322","formation":"Chipping Norton Limestone","lithology":"claystone","lithology_description":"Primary (Grey Clay): \"matrix-supported, but contains large, irregularu subrounded limestone cobbles (concentrated in the basal portion, which is interpreted as a regolith), with associated lime and lime-fraction silica sand. The clay is smectitic, with a high organic content, and it contains much partially lignitized wood...finely laminated. This lamination has been somewhat disrupted, possibly by bioturbation.\"\\r\\nSecondary (Green Clay): \"more homogenous than the Grey Clay. Limestone clasts and sand make up only 3 percent of the composition by weight. The deposit has more silica and sand and is an illite/chlorite clay. Vertical rootlets pervade the layer, extending from the mud-cracked, upper surface...into the underlying Grey Clay...The plant material is somewhat oxidized.","old_latitude":35.87,"old_longitude":19.1},{"id":"341509","name":"Mosasaurus","rank":"genus","early_interval":"campanian","late_interval":"","latitude":40.259998,"longitude":-74.27417,"country":"US","state":"New Jersey","county":"Monmouth","comment":"up stream from the Boundary Road bridge along Big Brook, outside the town of Freehold","formation":"","lithology":"sandstone","lithology_description":"Mt Laurel-Navesink: light gray, coarse clastic sand which contains some clay. Wenonah Fm: dark gray, silty, very fine sand. Marshalltown Fm: massive, greenish-gray fine silty sands. ","old_latitude":40.52,"old_longitude":-34.81},{"id":"343542","name":"Iguanodon","rank":"genus","early_interval":"aptian","late_interval":"","latitude":38.799999,"longitude":-9.383333,"country":"PT","state":"Lisboa","county":"Sintra","comment":"on the southern edge of Praia Grande do Rodizio, Sintra, Portgual. Coordinates are for Sintra.","formation":"Camadas de Almargem","lithology":"limestone","lithology_description":"footprints are in a series of limey benches of marls with ostreids; intercalated with marly limestones & limestones with numerous invertebrates.","old_latitude":30.64,"old_longitude":15.5},{"id":"346293","name":"Dimetrodon natalis","rank":"species","early_interval":"asselian","late_interval":"sakmarian","latitude":33.683334,"longitude":-98.699997,"country":"US","state":"Texas","county":"Archer","comment":"Locality is around 3km (~2miles) east of the intersection of Highway 25 and another unnamed Highway.","formation":"Nocona","lithology":"claystone","lithology_description":"gray, blocky to flaky and rarely laminated claystone grading downwards into yellow clays...Notable is the occurrence of small \"blebs\" of azurite and malachite staining on joint faces. Some layers of small clay pebbles are present","old_latitude":-1.69,"old_longitude":-30.37},{"id":"367435","name":"Edmontosaurus","rank":"genus","early_interval":"maastrichtian","late_interval":"","latitude":51.549999,"longitude":-112.865601,"country":"CA","state":"Alberta","county":"","comment":"1.5 miles S of Munson Ferry on Red Deer River near Drumheller, Alberta. SW corner of subdivision 6, section 10, T30, R21, W of 4th meridian. Approx. 9.5 miles NW of Drumheller. Horizon is about 80 ft. above river. (Also described as near Bleriot Ferry, about 10 km NW of RTMP.)","formation":"Horseshoe Canyon","lithology":"shale","lithology_description":"Dark gray carbonaceous shale containing comminuted plant fragments surrounded the fossil. A thin layer of hard, clay-pellet conglomerate lay just beneath it...zones of concretionary induration (so-called clay-ironstone) have developed adjacent to the bone.","old_latitude":63.7,"old_longitude":-68.41},{"id":"367509","name":"Dimetrodon natalis","rank":"species","early_interval":"kungurian","late_interval":"","latitude":33.700001,"longitude":-99.26667,"country":"US","state":"Texas","county":"Baylor","comment":"About seven miles north and somewhat west of Seymour lies Craddock's ranch, an area of 6 square miles, drained by Gray's Creek on the east and Brush Creek on the west. Numerous \"breaks\" are present in this region..\" See detailed locality map in Romer 1928. \" Zone 4. Lower Clear Fork. Lat long is for area south of Kemp Lake between Brushy Creek and Gray Creek. ","formation":"Arroyo","lithology":"claystone","lithology_description":"red beds... red clays, with small amounts of sandstone and conglomerates.\"\\r\\n","old_latitude":1.73,"old_longitude":-29},{"id":"372429","name":"Compsognathus longipes","rank":"species","early_interval":"tithonian","late_interval":"","latitude":43.705021,"longitude":6.37315,"country":"FR","state":"Provence-Alpes-Côte d'Azur","county":"Var","comment":"limestone quarry (or quarries) near Bessons, near Aiguine, at border of the \"Petit Plan\" du Canjuers; owned by the Ghirardi family; NW of Draguignan","formation":"","lithology":"lime mudstone","lithology_description":"very regularly layered lithographic limestone\"; \"homogenous…no coarse grains, joint or vesicles are present. They exhibit conchoidal fractures and sharp edges, and are smooth to the touch.\" Each bed has three layers: \"a basal lamina…composed of a very pure, fine microbe…an intermediate normal-graded mudstone level…with grain size decreasing from fine-grained carbonate mudstone at the base to very fine-grained carbonate mudstone at the top…a new lamina…of fine micrite carbonate similar to the basal lamina.","old_latitude":26.39,"old_longitude":21.19},{"id":"372881","name":"Camarasaurus lewisi","rank":"species","early_interval":"kimmeridgian","late_interval":"","latitude":38.806,"longitude":-108.388,"country":"US","state":"Colorado","county":"Mesa","comment":"Dominguez/Jones Quarry Pit 1, above confluence of Big and Little Dominguez Creeks, T14S R98W (N. Mex. principal meridian), Mesa Co., Colorado; E slope of Uncompaghre Plateau; ca. 1000 ft. above river. Pits 1 and 2 are 300 yes apart, and considered together as one site. Directions given in ref 62833 (Newell 1973).","formation":"Morrison","lithology":"mudstone","lithology_description":"well-graded (now), pale green sediments","old_latitude":26.29,"old_longitude":-41.89},{"id":"382123","name":"Allosaurus","rank":"genus","early_interval":"kimmeridgian","late_interval":"tithonian","latitude":35.286945,"longitude":-107.999168,"country":"US","state":"New Mexico","county":"Cibola","comment":"Suwanee Peak, near Rio San Jose (coordinates for latter used here)","formation":"Morrison","lithology":"not reported","lithology_description":"","old_latitude":22.73,"old_longitude":-44.28},{"id":"382136","name":"Allosaurus","rank":"genus","early_interval":"kimmeridgian","late_interval":"tithonian","latitude":43.430557,"longitude":-103.687775,"country":"US","state":"South Dakota","county":"Fall River","comment":"about 1 mile west of Minnekahta, SD (coordinates for town of Minnekahta). just W of where highway 18 cuts through E-W higback a few miles N of Edgemont. SW border of Black Hills.","formation":"Morrison","lithology":"sandstone","lithology_description":"tracks as molds in sandstone, prints in blue shale below","old_latitude":29.53,"old_longitude":-38.06},{"id":"384369","name":"Brontosaurus excelsus","rank":"species","early_interval":"kimmeridgian","late_interval":"tithonian","latitude":39.128502,"longitude":-108.728699,"country":"US","state":"Colorado","county":"Mesa","comment":"1.5 mi S of Fruita, Grand River Valley, Colorado. In NW 1/4, sec 29, T1N, R2W (Ute meridian)","formation":"Morrison","lithology":"claystone","lithology_description":"variegated clays...alternation between green and purplish bands does not mark andy variation in the nature of hardness of these massive joint clays. There are frequent layers of clay nodules, sometimes calcareous, and a few ledges of nodular gray sandstone which are confined to limited areas. Occasional thick ledges of cross-bedded sandstone and lenticular masses of greenish sand occur at almost all levels, but these are likewise of limited extent. Near the top...the clays take on a more sandy nature.\" (Riggs 1901)","old_latitude":26.57,"old_longitude":-43.62},{"id":"386326","name":"Mosasaurus conodon","rank":"species","early_interval":"campanian","late_interval":"","latitude":50.669701,"longitude":-107.428497,"country":"CA","state":"Saskatchewan","county":"","comment":"South side of the South Saskatchewan River, NE 1/4, sec. 2, tp. 20, rge. 11, WM3, Saskatchewan","formation":"Bearpaw Shale","lithology":"shale","lithology_description":"all specimens are preserved in a heterogeneous matrix ranging from a soft clay-like material to an extremely resistant, black substance. Using x-ray powder diffraction, the latter was identified as largely apatite...gypsum encrustation and infiltration have also disrupted some bone surfaces...","old_latitude":59.73,"old_longitude":-61.06},{"id":"387357","name":"Protoceratops andrewsi","rank":"species","early_interval":"campanian","late_interval":"","latitude":44.156948,"longitude":103.692329,"country":"MN","state":"Omnogov","county":"","comment":"Bayn Dzak (= Shabarak Usu), Omnogov","formation":"Djadokhta","lithology":"sandstone","lithology_description":"","old_latitude":39.13,"old_longitude":98.75},{"id":"387369","name":"Protoceratops andrewsi","rank":"species","early_interval":"campanian","late_interval":"","latitude":44.156948,"longitude":103.692329,"country":"MN","state":"Omnogov","county":"","comment":"Bayn Dzak (= Bain Dzak, Shabarak Usu), Omnogov","formation":"Djadokhta","lithology":"sandstone","lithology_description":"orange to moderate reddish-brown sands, containing scattered small reddish-brown sandstone nodules, known as 'concretions'. The sands have practically no cement. The cement of the nodules is calcareous...The known thickness of this layer is about 10 metres. The sands are particularly unresistant to weathering because of their poor cementation. Locally thin layers of hard, cemented orange-pink sandstone occur within this horizon, in the Main Mammal Field","old_latitude":39.13,"old_longitude":98.75},{"id":"387388","name":"Protoceratops andrewsi","rank":"species","early_interval":"campanian","late_interval":"","latitude":44.156948,"longitude":103.692329,"country":"MN","state":"Omnogov","county":"","comment":"Bayn Dzak (= Shabarakh Usu), Omnogov","formation":"Djadokhta","lithology":"not reported","lithology_description":"","old_latitude":39.13,"old_longitude":98.75},{"id":"387402","name":"Gallimimus bullatus","rank":"species","early_interval":"campanian","late_interval":"maastrichtian","latitude":43.601665,"longitude":100.456665,"country":"MN","state":"Omnogov","county":"","comment":"Altan Ula IV - no specifics given, 50 km W of Nemegt, Omnogov","formation":"Nemegt","lithology":"not reported","lithology_description":"","old_latitude":37.58,"old_longitude":95.52},{"id":"387405","name":"Protoceratops","rank":"genus","early_interval":"campanian","late_interval":"","latitude":43.5,"longitude":101.074997,"country":"MN","state":"Omnogov","county":"","comment":"E and S part of Nemegt basin (Southern Monadnocks, Red Monadnocks, and Red Walls) [no distinctions made], Omnogov","formation":"Baruungoyot","lithology":"sandstone","lithology_description":"fine-grained poorly cemented sandstones with rare intercalations of sandy mudstones. The sandstones usually have a brick-red colour, while the mudstones are of a somewhat darker reddish-brown colour.","old_latitude":38.21,"old_longitude":96.91},{"id":"389058","name":"Velociraptor mongoliensis","rank":"species","early_interval":"campanian","late_interval":"","latitude":43.664444,"longitude":100.901947,"country":"MN","state":"Omnogov Aimak","county":"","comment":"Ukhaa Tolgod \"is in the Nemegt Basins of the southwestern Gobi desert, about 10 km northwest of the village of Davs and 3 km southeast of Gilbent mountain (Fig 1a). It comprises several low hills, cliffs and gullies extending for about 7 km along a broad wash. The main concentration of specimens occurs in an amphitheatre (4 sq km) that marks the upper reaches of the wash.\" (Dashzeveg et al. 1995) Lat long is for Nemegt Mountains. ","formation":"Djadokhta","lithology":"sandstone","lithology_description":"Fossil vertebrate sites occur in the uppermost 65 m of a section dominated by red-orange, slightly silty, fine-to-coarse-grained sandstones with occasional beds of red-brown mudstones and grey-brown conglomerates (Fig. 1b)...The most fossiliferous sites are stratigraphically situated in a prominent cross-bedded unit of sandstone near the middle of the section.\" --Dashzeveg et al. 1995","old_latitude":38.33,"old_longitude":96.71},{"id":"389059","name":"Velociraptor","rank":"genus","early_interval":"campanian","late_interval":"","latitude":43.664444,"longitude":100.901947,"country":"MN","state":"Omnogov Aimak","county":"","comment":"Ukhaa Tolgod \"is in the Nemegt Basins of the southwestern Gobi desert, about 10 km northwest of the village of Davs and 3 km southeast of Gilbent mountain (Fig 1a). It comprises several low hills, cliffs and gullies extending for about 7 km along a broad wash. The main concentration of specimens occurs in an amphitheatre (4 sq km) that marks the upper reaches of the wash.\" (Dashzeveg et al. 1995) Lat long is for Nemegt Mountains. ","formation":"Djadokhta","lithology":"sandstone","lithology_description":"Fossil vertebrate sites occur in the uppermost 65 m of a section dominated by red-orange, slightly silty, fine-to-coarse-grained sandstones with occasional beds of red-brown mudstones and grey-brown conglomerates (Fig. 1b)...The most fossiliferous sites are stratigraphically situated in a prominent cross-bedded unit of sandstone near the middle of the section.\" --Dashzeveg et al. 1995","old_latitude":38.33,"old_longitude":96.71},{"id":"393070","name":"Protoceratops hellenikorhinus","rank":"species","early_interval":"campanian","late_interval":"","latitude":41.74139,"longitude":106.745003,"country":"CN","state":"Nei Mongol","county":"Bayan Nor","comment":"Bayan Mandahu, Urad Houqi Banner, Bayan Nor League, Inner Mongolia, China.","formation":"Bayan Mandahu","lithology":"sandstone","lithology_description":"","old_latitude":37.1,"old_longitude":102.32},{"id":"396098","name":"Mosasaurus","rank":"genus","early_interval":"maastrichtian","late_interval":"","latitude":48.625599,"longitude":44.0592,"country":"RU","state":"Volgograd","county":"","comment":"N shore of Bereslavka reservoir, 32 km W of Volgograd.","formation":"","lithology":"sandstone","lithology_description":"","old_latitude":34.94,"old_longitude":45.62},{"id":"396125","name":"Tyrannosaurus","rank":"genus","early_interval":"maastrichtian","late_interval":"","latitude":48.625599,"longitude":44.0592,"country":"RU","state":"Volgograd","county":"","comment":"N shore of Bereslavka reservoir, 32 km W of Volgograd.","formation":"","lithology":"conglomerate","lithology_description":"gravelite","old_latitude":34.75,"old_longitude":45.94},{"id":"401751","name":"Tyrannosaurus rex","rank":"species","early_interval":"maastrichtian","late_interval":"","latitude":47.536201,"longitude":-107.083,"country":"US","state":"Montana","county":"Garfield","comment":"sec 34, T21N, R36E, Engdahl Ranch (not F. S. McKeever Ranch, as reported in Molnar 1978) Garfield Co., MT","formation":"Hell Creek","lithology":"claystone","lithology_description":"dark gray clay","old_latitude":58.49,"old_longitude":-64.67},{"id":"401752","name":"Triceratops","rank":"genus","early_interval":"maastrichtian","late_interval":"","latitude":47.536201,"longitude":-107.083,"country":"US","state":"Montana","county":"Garfield","comment":"sec 34, T21N, R36E, Engdahl Ranch (not F. S. McKeever Ranch, as reported in Molnar 1978) Garfield Co., MT","formation":"Hell Creek","lithology":"claystone","lithology_description":"dark gray clay","old_latitude":58.49,"old_longitude":-64.67},{"id":"402869","name":"Megalosaurus","rank":"genus","early_interval":"kimmeridgian","late_interval":"","latitude":50.716702,"longitude":-2.7667,"country":"UK","state":"England","county":"Dorsetshire","comment":"pulled up in scallop traweler dredge from the seabed of Lyme Bay and West Bay, W of Portland, Dorset","formation":"Kimmeridge Clay","lithology":"shale","lithology_description":"calcite-cemented oil shale fragments","old_latitude":32.51,"old_longitude":13.06},{"id":"403027","name":"Allosaurus europaeus","rank":"species","early_interval":"oxfordian","late_interval":"kimmeridgian","latitude":39.849998,"longitude":-8.61667,"country":"PT","state":"Estremdura","county":"Leiria","comment":"near village of Andrés, Leiria district, Pombal, W-central Portugal, about 135 km NNE of Lisbon; region of Bombal Litoral","formation":"Alcobaça","lithology":"sandstone","lithology_description":"mainly represented by micaceous sandstones (as occur in Andrès), fine sands and silts\", also described as \"sandstones and marls that represent paleosols\", also described as \"fine-grained mud-sandstones, sometimes micaceous, with intercalations of some levels of marls, silts and clays, sometimes with\\r\\nabundant calcareous or limonitic nodules","old_latitude":24.9,"old_longitude":9.83},{"id":"403036","name":"Iguanodon","rank":"genus","early_interval":"campanian","late_interval":"maastrichtian","latitude":16.695,"longitude":31.145,"country":"SD","state":"Ash Shamaliyah","county":"","comment":"Wadi Abu Hashim, Humar Basin, near Wadi Muqaddam (Mogaddam), 200 km N of Khartoum","formation":"Wadi Milk","lithology":"sandstone","lithology_description":"fine grained siltsones, sandstones, and corase cross-bedded sandstones","old_latitude":-2.64,"old_longitude":32.22},{"id":"403130","name":"Compsognathus","rank":"genus","early_interval":"kimmeridgian","late_interval":"","latitude":39.700001,"longitude":-8.8,"country":"PT","state":"Leiria","county":"","comment":"","formation":"Alcobaça","lithology":"coal","lithology_description":"marly lignite coals","old_latitude":24.71,"old_longitude":9.32},{"id":"403444","name":"Gallimimus bullatus","rank":"species","early_interval":"campanian","late_interval":"maastrichtian","latitude":43.439934,"longitude":100.369415,"country":"MN","state":"Omnogov","county":"","comment":"Tsagan Ula (= Hushu/Ushu/Khusku), Omnogov","formation":"Nemegt","lithology":"sandstone","lithology_description":"","old_latitude":37.4,"old_longitude":95.49},{"id":"404787","name":"Gallimimus bullatus","rank":"species","early_interval":"campanian","late_interval":"maastrichtian","latitude":43.529167,"longitude":101.044724,"country":"MN","state":"Omnogov","county":"","comment":"Northern Sayr, Nemegt locality, Nemegt basin, Omnogov (southern Mongolia)","formation":"Nemegt","lithology":"conglomerate","lithology_description":"gravels","old_latitude":37.62,"old_longitude":96.06},{"id":"404797","name":"Protoceratops","rank":"genus","early_interval":"campanian","late_interval":"","latitude":43.316387,"longitude":99.82917,"country":"MN","state":"Omnogov","county":"","comment":"10 km NE of Khermeen Tsav I, about 50 km SW of Naran Bulak","formation":"Baruungoyot","lithology":"sandstone","lithology_description":"vivid red to orange, poorly cemented sandstone, with sandy concretions of variable size, small, white calcareous concretions occur. Some silt and clay intercalations. Cross-stratification is rare, but horizontally layered and massive beds are common. Common trace fossils - sediment-filled tubes - within the Red Beds. \"In the profile Khermeen Tsav II the thick-bedded sandstones are orange-coloured and numerous intercalations of light-coloured (white, yellow, pale-red, and bluish-green) thin-bedded siltstones and claystones are present.\" (10453)","old_latitude":37.6,"old_longitude":95.59},{"id":"404936","name":"Protoceratops hellenikorhinus","rank":"species","early_interval":"campanian","late_interval":"","latitude":41.741669,"longitude":106.746109,"country":"CN","state":"Nei Mongol","county":"Bayan Nor","comment":"Bayan Mandahu, Urad Houqi Banner, Bayan Nor League, Inner Mongolia, China.","formation":"Bayan Mandahu","lithology":"sandstone","lithology_description":"","old_latitude":37.1,"old_longitude":102.32},{"id":"404938","name":"Protoceratops hellenikorhinus","rank":"species","early_interval":"campanian","late_interval":"","latitude":41.797779,"longitude":106.736664,"country":"CN","state":"Nei Mongol","county":"Bayan Nor","comment":"Bayan Mandahu, Urad Houqi banner, Bayan Nor league, Inner Mongolia, China","formation":"Bayan Mandahu","lithology":"sandstone","lithology_description":"","old_latitude":37.15,"old_longitude":102.3},{"id":"404940","name":"Protoceratops hellenikorhinus","rank":"species","early_interval":"campanian","late_interval":"","latitude":41.787777,"longitude":106.71833,"country":"CN","state":"Nei Mongol","county":"Bayan Nor","comment":"Bayan Mandahu, Urad Houqi Banner, Bayan Nor League, Inner Mongolia, China","formation":"Bayan Mandahu","lithology":"sandstone","lithology_description":"","old_latitude":37.14,"old_longitude":102.28},{"id":"404941","name":"Protoceratops hellenikorhinus","rank":"species","early_interval":"campanian","late_interval":"","latitude":41.766666,"longitude":106.720001,"country":"CN","state":"Nei Mongol","county":"Bayan Nor","comment":"Bayan Mandahu, Urad Houqi Banner, Bayan Nor League, Inner Mongolia, China.","formation":"Bayan Mandahu","lithology":"sandstone","lithology_description":"","old_latitude":37.12,"old_longitude":102.29},{"id":"405117","name":"Apatosaurus","rank":"genus","early_interval":"kimmeridgian","late_interval":"tithonian","latitude":36.214001,"longitude":-103.634003,"country":"US","state":"New Mexico","county":"Union","comment":"Beenham 1973 quadrangle","formation":"Morrison","lithology":"","lithology_description":"","old_latitude":22.6,"old_longitude":-40.31},{"id":"405146","name":"Allosaurus","rank":"genus","early_interval":"kimmeridgian","late_interval":"","latitude":35.320278,"longitude":-106.940559,"country":"US","state":"New Mexico","county":"Sandoval","comment":"","formation":"Morrison","lithology":"","lithology_description":"","old_latitude":22.62,"old_longitude":-41.79},{"id":"405147","name":"Diplodocus carnegii","rank":"species","early_interval":"kimmeridgian","late_interval":"tithonian","latitude":35.563332,"longitude":-106.769997,"country":"US","state":"New Mexico","county":"Sandoval","comment":"near San Ysidro","formation":"Morrison","lithology":"not reported","lithology_description":"","old_latitude":22.7,"old_longitude":-43.15},{"id":"405199","name":"Apatosaurus","rank":"genus","early_interval":"kimmeridgian","late_interval":"","latitude":38.450001,"longitude":-107.400002,"country":"US","state":"Colorado","county":"Gunnison","comment":"Dino Cove, Curecanti N.R.A.","formation":"Morrison","lithology":"sandstone","lithology_description":"lens-shaped, fine- to medium-grained sandstone...In the thickest part of the sandstone body the sedimentary structures show a transition from crossbeds with heights of 10-12cm at the bottom of the unit, to well-defined planar beds, to cross-beds with heights of 2-3cm, to poorly-defined beds at the top of the unit...Above and below the sandstone are green, smectite-rich, massive mudstones.","old_latitude":25.73,"old_longitude":-41.19},{"id":"405200","name":"Allosaurus","rank":"genus","early_interval":"kimmeridgian","late_interval":"","latitude":38.450001,"longitude":-107.400002,"country":"US","state":"Colorado","county":"Gunnison","comment":"Dino Cove, Curecanti N.R.A.","formation":"Morrison","lithology":"sandstone","lithology_description":"lens-shaped, fine- to medium-grained sandstone...In the thickest part of the sandstone body the sedimentary structures show a transition from crossbeds with heights of 10-12cm at the bottom of the unit, to well-defined planar beds, to cross-beds with heights of 2-3cm, to poorly-defined beds at the top of the unit...Above and below the sandstone are green, smectite-rich, massive mudstones.","old_latitude":25.73,"old_longitude":-41.19},{"id":"405201","name":"Allosaurus","rank":"genus","early_interval":"kimmeridgian","late_interval":"","latitude":41.980556,"longitude":-106.138054,"country":"US","state":"Wyoming","county":"Carbon","comment":"Meilyn Quarry, 1.5 mi. NE of Ninemile Hill, on Flat Top Anticline, approx. sec. 11, T23N, R78W","formation":"Morrison","lithology":"sandstone","lithology_description":"sandstone...interbedded with green mudstone. The upper layers often exhibit low-angle ripple marks and horizontal bedding with an occasional dinosaur track. The bones are concentrated at the base and intermingled with rip-up clasts. Immediately below the quarry sand is a non-swelling green mudstone containing significant amounts of carbonaceous plant debris.","old_latitude":28.82,"old_longitude":-38.99},{"id":"405996","name":"Megalosaurus","rank":"genus","early_interval":"bathonian","late_interval":"","latitude":51.866669,"longitude":-1.26667,"country":"UK","state":"England","county":"Oxfordshire","comment":"Old Cement Works Quarry, near Kirtlington, Oxfordshire (Ordnance Survey Grid Reference SP 495200)","formation":"Forest Marble","lithology":"marl","lithology_description":"nonmarine clay\" and \"unconsolidated marl","old_latitude":35.8,"old_longitude":19.52},{"id":"408058","name":"Stegosaurus ungulatus","rank":"species","early_interval":"kimmeridgian","late_interval":"tithonian","latitude":41.9077,"longitude":-105.963402,"country":"US","state":"Wyoming","county":"Albany","comment":"NE 1/4 of sec. 5, T22N, R76W, Como Bluff, Albany Co., WY (possibly section 6); 8 miles E of Como","formation":"Morrison","lithology":"sandstone","lithology_description":"a stratum of sandy clay...intercalated between bands of marl or clay, green below and brownish above, all three lying between layers of sandstone.\" Actually a \"fine-grained sandstone\" (Foster 2003)","old_latitude":28.58,"old_longitude":-40.41},{"id":"408060","name":"Stegosaurus","rank":"genus","early_interval":"kimmeridgian","late_interval":"tithonian","latitude":41.9077,"longitude":-105.963402,"country":"US","state":"Wyoming","county":"Albany","comment":"NE 1/4 of sec. 5, T22N, R76W, Como Bluff, Albany Co., WY (possibly section 6); 8 miles E of Como","formation":"Morrison","lithology":"sandstone","lithology_description":"a stratum of sandy clay...intercalated between bands of marl or clay, green below and brownish above, all three lying between layers of sandstone.\" Actually a \"fine-grained sandstone\" (Foster 2003)","old_latitude":28.58,"old_longitude":-40.41},{"id":"408065","name":"Stegosaurus stenops","rank":"species","early_interval":"kimmeridgian","late_interval":"tithonian","latitude":41.9077,"longitude":-105.963402,"country":"US","state":"Wyoming","county":"Albany","comment":"NE 1/4 of sec. 5, T22N, R76W, Como Bluff, Albany Co., WY (possibly section 6); 8 miles E of Como","formation":"Morrison","lithology":"sandstone","lithology_description":"a stratum of sandy clay...intercalated between bands of marl or clay, green below and brownish above, all three lying between layers of sandstone.\" Actually a \"fine-grained sandstone\" (Foster 2003)","old_latitude":28.58,"old_longitude":-40.41},{"id":"408069","name":"Camarasaurus lentus","rank":"species","early_interval":"kimmeridgian","late_interval":"tithonian","latitude":41.9077,"longitude":-105.963402,"country":"US","state":"Wyoming","county":"Albany","comment":"NE 1/4 of sec. 5, T22N, R76W, Como Bluff, Albany Co., WY (possibly section 6); 8 miles E of Como","formation":"Morrison","lithology":"sandstone","lithology_description":"a stratum of sandy clay...intercalated between bands of marl or clay, green below and brownish above, all three lying between layers of sandstone.\" Actually a \"fine-grained sandstone\" (Foster 2003)","old_latitude":28.58,"old_longitude":-40.41},{"id":"408070","name":"Camarasaurus","rank":"genus","early_interval":"kimmeridgian","late_interval":"tithonian","latitude":41.9077,"longitude":-105.963402,"country":"US","state":"Wyoming","county":"Albany","comment":"NE 1/4 of sec. 5, T22N, R76W, Como Bluff, Albany Co., WY (possibly section 6); 8 miles E of Como","formation":"Morrison","lithology":"sandstone","lithology_description":"a stratum of sandy clay...intercalated between bands of marl or clay, green below and brownish above, all three lying between layers of sandstone.\" Actually a \"fine-grained sandstone\" (Foster 2003)","old_latitude":28.58,"old_longitude":-40.41},{"id":"408071","name":"Allosaurus","rank":"genus","early_interval":"kimmeridgian","late_interval":"tithonian","latitude":41.9077,"longitude":-105.963402,"country":"US","state":"Wyoming","county":"Albany","comment":"NE 1/4 of sec. 5, T22N, R76W, Como Bluff, Albany Co., WY (possibly section 6); 8 miles E of Como","formation":"Morrison","lithology":"sandstone","lithology_description":"a stratum of sandy clay...intercalated between bands of marl or clay, green below and brownish above, all three lying between layers of sandstone.\" Actually a \"fine-grained sandstone\" (Foster 2003)","old_latitude":28.58,"old_longitude":-40.41},{"id":"408077","name":"Camarasaurus","rank":"genus","early_interval":"kimmeridgian","late_interval":"tithonian","latitude":41.9077,"longitude":-105.963402,"country":"US","state":"Wyoming","county":"Albany","comment":"NE 1/4 of sec. 5, T22N, R76W, Como Bluff, Albany Co., WY (possibly section 6); 8 miles E of Como","formation":"Morrison","lithology":"sandstone","lithology_description":"a stratum of sandy clay...intercalated between bands of marl or clay, green below and brownish above, all three lying between layers of sandstone.\" Actually a \"fine-grained sandstone\" (Foster 2003)","old_latitude":28.58,"old_longitude":-40.41},{"id":"408078","name":"Stegosaurus","rank":"genus","early_interval":"kimmeridgian","late_interval":"tithonian","latitude":41.9077,"longitude":-105.963402,"country":"US","state":"Wyoming","county":"Albany","comment":"NE 1/4 of sec. 5, T22N, R76W, Como Bluff, Albany Co., WY (possibly section 6); 8 miles E of Como","formation":"Morrison","lithology":"sandstone","lithology_description":"a stratum of sandy clay...intercalated between bands of marl or clay, green below and brownish above, all three lying between layers of sandstone.\" Actually a \"fine-grained sandstone\" (Foster 2003)","old_latitude":28.58,"old_longitude":-40.41},{"id":"408079","name":"Brachiosaurus","rank":"genus","early_interval":"kimmeridgian","late_interval":"tithonian","latitude":41.9077,"longitude":-105.963402,"country":"US","state":"Wyoming","county":"Albany","comment":"NE 1/4 of sec. 5, T22N, R76W, Como Bluff, Albany Co., WY (possibly section 6); 8 miles E of Como","formation":"Morrison","lithology":"sandstone","lithology_description":"a stratum of sandy clay...intercalated between bands of marl or clay, green below and brownish above, all three lying between layers of sandstone.\" Actually a \"fine-grained sandstone\" (Foster 2003)","old_latitude":28.58,"old_longitude":-40.41},{"id":"408080","name":"Stegosaurus","rank":"genus","early_interval":"kimmeridgian","late_interval":"tithonian","latitude":41.9077,"longitude":-105.963402,"country":"US","state":"Wyoming","county":"Albany","comment":"NE 1/4 of sec. 5, T22N, R76W, Como Bluff, Albany Co., WY (possibly section 6); 8 miles E of Como","formation":"Morrison","lithology":"sandstone","lithology_description":"a stratum of sandy clay...intercalated between bands of marl or clay, green below and brownish above, all three lying between layers of sandstone.\" Actually a \"fine-grained sandstone\" (Foster 2003)","old_latitude":28.58,"old_longitude":-40.41},{"id":"408082","name":"Stegosaurus stenops","rank":"species","early_interval":"kimmeridgian","late_interval":"tithonian","latitude":38.539501,"longitude":-105.224701,"country":"US","state":"Colorado","county":"Fremont","comment":"11 km N of Cañon City, Colorado. NE 1/4 of SE 1/4 of sec. 28, T17S, R70W. S end of Garden Park. Site above a cliff on N side of arroyo feeding into Four Mile (= Oil) Creek","formation":"Morrison","lithology":"sandstone","lithology_description":"the bones are for the most part found in a very hard layer of sandstone, though they occasionally extend down for a short distance into the underlying clays.\" Sandstone described as \"heavily bedded\". Bones in a \"coarse to gravelly, pale yellowish white sandstone.\" Sandstone body is broadly lenticular.","old_latitude":25.19,"old_longitude":-40.92},{"id":"408083","name":"Stegosaurus","rank":"genus","early_interval":"kimmeridgian","late_interval":"tithonian","latitude":38.539501,"longitude":-105.224701,"country":"US","state":"Colorado","county":"Fremont","comment":"11 km N of Cañon City, Colorado. NE 1/4 of SE 1/4 of sec. 28, T17S, R70W. S end of Garden Park. Site above a cliff on N side of arroyo feeding into Four Mile (= Oil) Creek","formation":"Morrison","lithology":"sandstone","lithology_description":"the bones are for the most part found in a very hard layer of sandstone, though they occasionally extend down for a short distance into the underlying clays.\" Sandstone described as \"heavily bedded\". Bones in a \"coarse to gravelly, pale yellowish white sandstone.\" Sandstone body is broadly lenticular.","old_latitude":25.19,"old_longitude":-40.92},{"id":"408087","name":"Allosaurus fragilis","rank":"species","early_interval":"kimmeridgian","late_interval":"tithonian","latitude":38.539501,"longitude":-105.224701,"country":"US","state":"Colorado","county":"Fremont","comment":"11 km N of Cañon City, Colorado. NE 1/4 of SE 1/4 of sec. 28, T17S, R70W. S end of Garden Park. Site above a cliff on N side of arroyo feeding into Four Mile (= Oil) Creek","formation":"Morrison","lithology":"sandstone","lithology_description":"the bones are for the most part found in a very hard layer of sandstone, though they occasionally extend down for a short distance into the underlying clays.\" Sandstone described as \"heavily bedded\". Bones in a \"coarse to gravelly, pale yellowish white sandstone.\" Sandstone body is broadly lenticular.","old_latitude":25.19,"old_longitude":-40.92},{"id":"408088","name":"Brontosaurus","rank":"genus","early_interval":"kimmeridgian","late_interval":"tithonian","latitude":38.539501,"longitude":-105.224701,"country":"US","state":"Colorado","county":"Fremont","comment":"11 km N of Cañon City, Colorado. NE 1/4 of SE 1/4 of sec. 28, T17S, R70W. S end of Garden Park. Site above a cliff on N side of arroyo feeding into Four Mile (= Oil) Creek","formation":"Morrison","lithology":"sandstone","lithology_description":"the bones are for the most part found in a very hard layer of sandstone, though they occasionally extend down for a short distance into the underlying clays.\" Sandstone described as \"heavily bedded\". Bones in a \"coarse to gravelly, pale yellowish white sandstone.\" Sandstone body is broadly lenticular.","old_latitude":25.19,"old_longitude":-40.92},{"id":"408386","name":"Brachiosaurus","rank":"genus","early_interval":"kimmeridgian","late_interval":"tithonian","latitude":38.539501,"longitude":-105.224701,"country":"US","state":"Colorado","county":"Fremont","comment":"11 km N of Cañon City, Colorado. NE 1/4 of SE 1/4 of sec. 28, T17S, R70W. S end of Garden Park. Site above a cliff on N side of arroyo feeding into Four Mile (= Oil) Creek","formation":"Morrison","lithology":"sandstone","lithology_description":"the bones are for the most part found in a very hard layer of sandstone, though they occasionally extend down for a short distance into the underlying clays.\" Sandstone described as \"heavily bedded\". Bones in a \"coarse to gravelly, pale yellowish white sandstone.\" Sandstone body is broadly lenticular.","old_latitude":25.19,"old_longitude":-40.92},{"id":"408395","name":"Diplodocus","rank":"genus","early_interval":"kimmeridgian","late_interval":"tithonian","latitude":41.893101,"longitude":-106.041,"country":"US","state":"Wyoming","county":"Albany","comment":"SW 1/4 of SW 1/4 of sec. 10, T22N, R77W, Como Bluff, Albany Co., WY","formation":"Morrison","lithology":"claystone","lithology_description":"","old_latitude":28.58,"old_longitude":-40.48},{"id":"408396","name":"Camarasaurus grandis","rank":"species","early_interval":"kimmeridgian","late_interval":"tithonian","latitude":41.893101,"longitude":-106.041,"country":"US","state":"Wyoming","county":"Albany","comment":"SW 1/4 of SW 1/4 of sec. 10, T22N, R77W, Como Bluff, Albany Co., WY","formation":"Morrison","lithology":"claystone","lithology_description":"","old_latitude":28.58,"old_longitude":-40.48},{"id":"408398","name":"Camarasaurus grandis","rank":"species","early_interval":"kimmeridgian","late_interval":"tithonian","latitude":41.893101,"longitude":-106.041,"country":"US","state":"Wyoming","county":"Albany","comment":"SW 1/4 of SW 1/4 of sec. 10, T22N, R77W, Como Bluff, Albany Co., WY","formation":"Morrison","lithology":"claystone","lithology_description":"","old_latitude":28.58,"old_longitude":-40.48},{"id":"408399","name":"Camarasaurus grandis","rank":"species","early_interval":"kimmeridgian","late_interval":"tithonian","latitude":41.893101,"longitude":-106.041,"country":"US","state":"Wyoming","county":"Albany","comment":"SW 1/4 of SW 1/4 of sec. 10, T22N, R77W, Como Bluff, Albany Co., WY","formation":"Morrison","lithology":"claystone","lithology_description":"","old_latitude":28.58,"old_longitude":-40.48},{"id":"408400","name":"Camarasaurus grandis","rank":"species","early_interval":"kimmeridgian","late_interval":"tithonian","latitude":41.893101,"longitude":-106.041,"country":"US","state":"Wyoming","county":"Albany","comment":"SW 1/4 of SW 1/4 of sec. 10, T22N, R77W, Como Bluff, Albany Co., WY","formation":"Morrison","lithology":"claystone","lithology_description":"","old_latitude":28.58,"old_longitude":-40.48},{"id":"408402","name":"Diplodocus","rank":"genus","early_interval":"kimmeridgian","late_interval":"tithonian","latitude":41.9077,"longitude":-105.963402,"country":"US","state":"Wyoming","county":"Albany","comment":"NE 1/4 of sec. 5, T22N, R76W, Como Bluff, Albany Co., WY (possibly section 6); 8 miles E of Como","formation":"Morrison","lithology":"sandstone","lithology_description":"a stratum of sandy clay...intercalated between bands of marl or clay, green below and brownish above, all three lying between layers of sandstone.\" Actually a \"fine-grained sandstone\" (Foster 2003)","old_latitude":28.58,"old_longitude":-40.41},{"id":"408404","name":"Stegosaurus","rank":"genus","early_interval":"kimmeridgian","late_interval":"tithonian","latitude":41.9077,"longitude":-105.963402,"country":"US","state":"Wyoming","county":"Albany","comment":"NE 1/4 of sec. 5, T22N, R76W, Como Bluff, Albany Co., WY (possibly section 6); 8 miles E of Como","formation":"Morrison","lithology":"sandstone","lithology_description":"a stratum of sandy clay...intercalated between bands of marl or clay, green below and brownish above, all three lying between layers of sandstone.\" Actually a \"fine-grained sandstone\" (Foster 2003)","old_latitude":28.58,"old_longitude":-40.41},{"id":"408733","name":"Camarasaurus","rank":"genus","early_interval":"kimmeridgian","late_interval":"tithonian","latitude":41.878601,"longitude":-106.079803,"country":"US","state":"Wyoming","county":"Carbon","comment":"SW 1/4 of NE 1/4 of sec. 17, T22N, R77W, Como Bluff","formation":"Morrison","lithology":"sandstone","lithology_description":"","old_latitude":28.57,"old_longitude":-40.51},